UID,HPSA Name,Designation Type,HPSA Score,Primary State Abbreviation,HPSA Status,HPSA Designation Date,HPSA Designation Last Update Date,Withdrawn Date,County Name,Metropolitan Indicator,HPSA Population Type,HPSA Degree of Shortage,# of FTEs Short,HPSA Designation Population,% of Population Below 100% Poverty,Street Address,CITY,ZIP Code,Primary HHS Region Name,Rural Status,Longitude,Latitude
6509995021,Northeast Washington County Community Health Cente,Federally Qualified Health Center,7,VT,Designated,6/1/1977,12/14/2016,,Washington County,Non-Metropolitan,,,0,,,157 Towne Ave,Plainfield,05667-9425,Region I,Rural,-72.43157145,44.27758423
6539995316,Seattle and King County Jails,Correctional Facility,0,WA,Withdrawn,5/23/1978,10/2/1995,10/2/1995,,Metropolitan,,,0,,,,,,Region X,Unknown,-120.5562632,47.41125184
6139991301,Gracewood School,Other Facility,0,GA,Withdrawn,6/8/1978,1/29/1985,1/29/1985,,Metropolitan,,,0,,,,,,Region IV,Unknown,-83.4445344,32.64832455
6269992621,Wayne County Jail,Correctional Facility,0,MI,Withdrawn,7/25/1978,9/11/1985,9/11/1985,,Metropolitan,,,0,,,,,,Region V,Unknown,-84.19669749,44.12519983
6199991923,State Correctional Institutions,Correctional Facility,0,IA,Withdrawn,8/11/1978,3/8/1985,3/8/1985,,Non-Metropolitan,,,0,,,,,,Region VII,Unknown,-93.49997241,42.0746981
6399993979,Third Street Community,Federally Qualified Health Center,18,OH,Designated,8/14/1978,12/17/2014,,Richland County,Metropolitan,,,0,,,600 W 3rd St,Mansfield,44906-2633,Region V,Non-Rural,-82.53732974,40.76038751
6469994602,Human Services Center,Other Facility,0,SD,Withdrawn,8/30/1978,8/13/1984,8/13/1984,,Non-Metropolitan,,,0,,,,,,Region VIII,Unknown,-100.2305367,44.436128
6179991711,Statesville Correctional Institution,Correctional Facility,0,IL,Withdrawn,8/30/1978,10/2/1995,10/2/1995,,Metropolitan,,,0,,,,,,Region V,Unknown,-89.1586509,40.11404657
6179991710,Joliet Correctional Institution,Correctional Facility,0,IL,Withdrawn,8/30/1978,10/2/1995,10/2/1995,,Metropolitan,,,0,,,,,,Region V,Unknown,-89.1586509,40.11404657
6219992102,Kentucky State Reformatory,Correctional Facility,0,KY,Withdrawn,9/28/1978,2/14/1985,2/14/1985,,Non-Metropolitan,,,0,,,,,,Region IV,Unknown,-85.28762006,37.52723252
6539995301,Waashington State Correctional Institute,Correctional Facility,0,WA,Withdrawn,10/27/1978,3/16/1984,3/16/1984,,Metropolitan,,,0,,,,,,Region X,Unknown,-120.5562632,47.41125184
6269992606,Titus Greenwood Health Center,Other Facility,0,MI,Withdrawn,11/2/1978,9/11/1985,9/11/1985,,Metropolitan,,,0,,,,,,Region V,Unknown,-84.19669749,44.12519983
6269992605,Herman Keifer Health Complex,Other Facility,0,MI,Withdrawn,11/2/1978,9/11/1985,9/11/1985,,Metropolitan,,,0,,,,,,Region V,Unknown,-84.19669749,44.12519983
6379993702,Lincoln Community Health Center,Other Facility,0,NC,Withdrawn,12/19/1978,10/10/1984,10/10/1984,,Metropolitan,,,0,,,,,,Region IV,Unknown,-79.18541791,35.53934433
6129991201,Baker Correctional Institution,Correctional Facility,6,FL,Proposed For Withdrawal,3/23/1979,12/28/2018,,Baker County,Unknown,,0,0.31,908,,20706 US Highway 90,Sanderson,32087-2359,Region IV,Rural,-82.3727836,30.21628203
6122218303,Cross City Correctional Institution,Correctional Facility,12,FL,Designated,5/16/1979,7/6/2018,,Dixie County,Unknown,,12,1.95,2932,,568 NE 255th St,Cross City,32628-5877,Region IV,Rural,-83.09725364,29.63143872
6489994803,R.E. Thomason General Hospital,Other Facility,0,TX,Withdrawn,5/30/1979,5/21/1985,5/21/1985,,Metropolitan,,,0,,,,,,Region VI,Unknown,-99.33305008,31.46273304
6399993918,Justice Center/Cuyahoga,Correctional Facility,0,OH,Withdrawn,2/2/1982,10/2/1995,10/2/1995,,Metropolitan,,,0,,,,,,Region V,Unknown,-82.71121518,40.41305679
6179991719,Cook County Department of Correctional Complexes,Correctional Facility,0,IL,Withdrawn,3/1/1982,11/3/2011,11/3/2011,,Metropolitan,,,27.2,,,,,,Region V,Unknown,-89.1586509,40.11404657
6539995317,McNeil Island Correctional Center,Correctional Facility,0,WA,Withdrawn,5/26/1982,6/29/2012,6/29/2012,Pierce County,Metropolitan,,,0.5,,,1403 Commercial St,Steilacoom,98388-1305,Region X,Non-Rural,-122.6019542,47.17218222
6449994403,Central Health Center Providence,Other Facility,0,RI,Withdrawn,3/18/1983,2/28/2000,2/28/2000,,Metropolitan,,,0,,,,,,Region I,Unknown,-71.45431946,41.48871294
6449994402,Allen Berry Health Center,Other Facility,0,RI,Withdrawn,3/18/1983,2/28/2000,2/28/2000,,Metropolitan,,,0,,,,,,Region I,Unknown,-71.45431946,41.48871294
6539995305,Pierce County Jail,Correctional Facility,0,WA,Withdrawn,4/4/1983,10/2/1995,10/2/1995,,Metropolitan,,,0,,,,,,Region X,Unknown,-120.5562632,47.41125184
6649996402,Pohnpei Community Health Center,Federally Qualified Health Center,18,FM,Designated,1/7/1984,4/13/2015,,Pohnpei State,Non-Metropolitan,,,0,,,Sekirinpeilapalap Street,Kolonia,96941,Region IX,Rural,158.2167,6.84999999
6159991503,Oahu Community Correctional Complex,Correctional Facility,0,HI,Withdrawn,3/12/1984,12/31/1996,12/31/1996,,Metropolitan,,1.3,1.3,,,,,,Region IX,Unknown,-157.9436319,21.43954257
6299992910,Renz Correctional Center,Correctional Facility,0,MO,Withdrawn,6/22/1984,10/2/1995,10/2/1995,,Non-Metropolitan,,,0,,,,,,Region VII,Unknown,-92.47774661,38.36798274
6299992909,Missouri Training Center for Men,Correctional Facility,0,MO,Withdrawn,6/22/1984,10/2/1995,10/2/1995,,Non-Metropolitan,,,0,,,,,,Region VII,Unknown,-92.47774661,38.36798274
6299992905,Missouri Eastern Correctional Center,Correctional Facility,0,MO,Withdrawn,6/22/1984,10/2/1995,10/2/1995,,Metropolitan,,,0,,,,,,Region VII,Unknown,-92.47774661,38.36798274
6299992904,Missouri State Pen,Correctional Facility,0,MO,Withdrawn,6/22/1984,10/2/1995,10/2/1995,,Non-Metropolitan,,,0,,,,,,Region VII,Unknown,-92.47774661,38.36798274
6299992903,Centrala Missouri Correctional Center,Correctional Facility,0,MO,Withdrawn,6/22/1984,10/2/1995,10/2/1995,,Non-Metropolitan,,,0,,,,,,Region VII,Unknown,-92.47774661,38.36798274
6299992902,Algoa Corrections Center,Correctional Facility,0,MO,Withdrawn,6/22/1984,10/2/1995,10/2/1995,,Non-Metropolitan,,,0,,,,,,Region VII,Unknown,-92.47774661,38.36798274
60699906B8,"Community Health Systems, Inc.",Federally Qualified Health Center,15,CA,Designated,1/6/1985,11/27/2014,,Riverside County,Metropolitan,,,0,,,8151 Arlington Ave Ste U-V,Riverside,92503-0436,Region IX,Non-Rural,-117.4598407,33.94639139
6519995186,"Southern Dominion Health Systems, Inc.",Federally Qualified Health Center,18,VA,Designated,1/7/1985,7/2/2013,,Lunenburg County,Non-Metropolitan,,,0,,,1508 K V Rd,Victoria,23974-2624,Region III,Rural,-78.19974969,36.97106101
63799937B3,Bertie County Rural Health Association,Federally Qualified Health Center,0,NC,Designated,1/19/1985,1/19/1985,,Bertie County,Non-Metropolitan,,,0,,,104 Rhodes Ave,Windsor,27983-9656,Region IV,Rural,-76.93023135,35.98842599
6289992858,"Family Health Center, Inc.",Federally Qualified Health Center,0,MS,Designated,1/10/1986,5/13/2014,,Jones County,Non-Metropolitan,,,0,,,117 S 11th Ave,Laurel,39440-4312,Region IV,Rural,-89.13993541,31.68932285
6549995426,Huttonsville Correctional Center,Correctional Facility,0,WV,Withdrawn,2/25/1986,10/2/1995,10/2/1995,,Non-Metropolitan,,,0,,,,,,Region III,Unknown,-80.61361664,38.64241493
60699906L5,Shingletown Medical Center,Federally Qualified Health Center,24,CA,Designated,5/30/1986,4/28/2017,,Shasta County,Non-Metropolitan,,,0,,,31292 Alpine Meadows Rd,Shingletown,96088-9462,Region IX,Non-Rural,-121.885813,40.49139987
6359993514,Central New Mexico Correctional Facility,Correctional Facility,0,NM,Withdrawn,11/15/1989,10/2/1995,10/2/1995,,Non-Metropolitan,,,0,,,,,,Region VI,Unknown,-106.1084038,34.42132653
6.37E+16,Finger Lakes Migrant Health Proj.,Federally Qualified Health Center,15,NY,Designated,1/6/1991,4/13/2012,,Yates County,Non-Metropolitan,,,0,,,14 Maiden Ln,Penn Yan,14527-1208,Region II,Rural,-77.05527162,42.66169965
617999175L,City of Chicago Department of Health - Lower Wests,Federally Qualified Health Center Look A Like,0,IL,Designated,8/8/1991,5/15/2015,,Cook County,Metropolitan,,,0,,,2001 S California Ave,Chicago,60608-2486,Region V,Non-Rural,-87.69549423,41.85443909
6299992914,Farmington Correctional Complex,Correctional Facility,0,MO,Withdrawn,9/6/1991,12/31/1996,12/31/1996,,Non-Metropolitan,,0.7,0.7,,,,,,Region VII,Unknown,-92.47774661,38.36798274
6269992630,Jackson Region Clin. Complex,Correctional Facility,0,MI,Withdrawn,2/6/1992,5/30/1997,5/30/1997,,Metropolitan,,0.1,0.1,,,,,,Region V,Unknown,-84.19669749,44.12519983
6429994257,State Correctional Institue - Frackville,Correctional Facility,0,PA,Withdrawn,2/11/1992,5/30/1997,5/30/1997,,Non-Metropolitan,,0.1,0.1,,,,,,Region III,Unknown,-77.83875077,40.89651165
6495823889,Utah State Prison - Draper,Correctional Facility,3,UT,Designated,6/28/1993,12/28/2018,,Salt Lake County,Unknown,,3,0.91,7350,,14425 S Bitterbrush Ln,Draper,84020-9501,Region VIII,Non-Rural,-111.89914,40.48813418
6287578022,Mississippi State Penitentiary (MSP),Correctional Facility,15,MS,Designated,7/29/1993,8/2/2018,,Sunflower County,Unknown,,6,1.84,3366,,Highway 49 W,Drew,38737,Region IV,Rural,-90.52349534,33.81122232
6538187702,Washington Corrections Center,Correctional Facility,15,WA,Designated,2/16/1994,10/27/2017,,Mason County,Unknown,,6,3.66,8641,,2321 W Dayton Airport Rd,Shelton,98584-6319,Region X,Rural,-123.191232,47.242925
6539995329,WA Correctional Center for Women,Correctional Facility,12,WA,Withdrawn,2/16/1994,6/27/2013,6/27/2013,Pierce County,Non-Metropolitan,,,1.54,,,9601 Bujacich Rd NW,Gig Harbor,98332-8300,Region X,Non-Rural,-122.6145502,47.34563945
6533849907,CF-Washington State Penitentiary,Correctional Facility,3,WA,Designated,2/16/1994,12/28/2017,,Walla Walla County,Unknown,,3,0.27,4607,,1313 N 13th Ave,Walla Walla,99362-8817,Region X,Non-Rural,-118.356481,46.077905
6139991310,Metro Correctional Institution,Correctional Facility,0,GA,Withdrawn,5/27/1994,11/3/2011,11/3/2011,,Metropolitan,,,0.7,,,,,,Region IV,Unknown,-83.4445344,32.64832455
6126733273,Federal Correctional Institution - Marianna,Correctional Facility,12,FL,Proposed For Withdrawal,6/24/1994,12/28/2018,,Jackson County,Unknown,,12,1.53,2288,,3625 Fci Rd,Marianna,32446,Region IV,Rural,-85.18825253,30.828303
6428377129,Federal Correctional Institution - Schuylkill,Correctional Facility,12,PA,Proposed For Withdrawal,6/24/1994,12/28/2018,,Schuylkill County,Unknown,,12,1.54,2313,,INTERSTATE 81 AND RO,Minersville,17954,Region III,Rural,-76.26050999,40.68897
6019990110,Federal Correctional Institution - Talladega,Correctional Facility,12,AL,Proposed For Withdrawal,6/24/1994,12/28/2018,,Talladega County,Unknown,,1.4,1.33,1999,,565 E Renfroe Rd,Talladega,35160-4811,Region IV,Rural,-86.14319193,33.42484154
6427169126,USP-Lewisburg,Correctional Facility,12,PA,Proposed For Withdrawal,6/24/1994,12/28/2018,,Union County,Unknown,,12,1.7,2547,,2400 Robert F Miller Dr,Lewisburg,17837-6850,Region III,Rural,-76.91486929,40.98495587
6131149657,Federal Correctional Institution - Jesup,Correctional Facility,12,GA,Proposed For Withdrawal,6/24/1994,12/28/2018,,Wayne County,Unknown,,12,1.78,2666,,2600 S US Highway 301,Jesup,31599-5676,Region IV,Rural,-81.89043473,31.56325214
6519995118,Federal Correctional Institution - Petersburg,Correctional Facility,0,VA,Withdrawn,6/24/1994,9/15/2000,9/15/2000,,Metropolitan,,4.2,4.2,,,,,,Region III,Unknown,-78.69794871,37.5128205
6479994705,South Central Correctional Center .,Correctional Facility,0,TN,Withdrawn,8/26/1994,9/15/2000,9/15/2000,,Non-Metropolitan,,0.2,0.2,,,,,,Region IV,Unknown,-86.34305117,35.84300269
6489994828,Federal Correctional Institution - Bastrop,Correctional Facility,15,TX,Proposed For Withdrawal,12/13/1994,12/28/2018,,Bastrop County,Unknown,,1,0.86,1289,,1341 State Highway 95,Bastrop,78602-2630,Region VI,Non-Rural,-97.31507048,30.1865505
6376695111,Federal Correctional Complex-Butner,Correctional Facility,15,NC,Proposed For Withdrawal,12/13/1994,12/28/2018,,Granville County,Unknown,,12,19.62,29428,,2 Old 75 Hwy,Butner,27509-1632,Region IV,Rural,-78.79940014,36.1381834
6219992111,Federal Correctional Institution - Ashland,Correctional Facility,12,KY,Proposed For Withdrawal,12/13/1994,12/28/2018,,Boyd County,Unknown,,1,0.85,1273,,State Route 716,Ashland,41102,Region IV,Non-Rural,-82.7028465,38.43772967
6136456944,USP-Atlanta,Correctional Facility,12,GA,Proposed For Withdrawal,12/13/1994,12/28/2018,,Fulton County,Unknown,,12,12.85,19278,,601 Mcdonough Blvd SE,Atlanta,30315-4400,Region IV,Non-Rural,-84.3682441,33.71364554
6428517523,Federal Correctional Complex-Allenwood,Correctional Facility,12,PA,Proposed For Withdrawal,12/13/1994,12/28/2018,,Union County,Unknown,,12,5.79,8681,,US Route 15,Allenwood,17810,Region III,Rural,-76.89265643,41.10142743
6429994264,USP Allenwood,Correctional Facility,0,PA,Withdrawn,12/13/1994,2/27/2007,2/27/2007,,Non-Metropolitan,,,0,,,,,,Region III,Unknown,-77.83875077,40.89651165
617999175N,Southern IL Regional Wellness Center,Federally Qualified Health Center Look A Like,0,IL,Designated,12/19/1994,12/19/1994,,St. Clair County,Metropolitan,,,0,,,100 N 8th St Ste 232,East Saint Louis,62201-2989,Region V,Non-Rural,-90.1576423,38.62222422
6489994833,Garza West and East Units,Correctional Facility,0,TX,Withdrawn,4/26/1995,9/15/2000,9/15/2000,,Metropolitan,,5,5,,,,,,Region VI,Unknown,-99.33305008,31.46273304
6489994834,Bexar County State Jail,Correctional Facility,0,TX,Withdrawn,5/1/1995,9/15/2000,9/15/2000,,Metropolitan,,1.2,1.2,,,,,,Region VI,Unknown,-99.33305008,31.46273304
6229992215,LA State Pen - Angola,Correctional Facility,0,LA,Withdrawn,6/16/1995,9/15/2000,9/15/2000,,Non-Metropolitan,,0.4,0.4,,,,,,Region VI,Unknown,-91.42641999,30.18584616
6209252240,USP-Leavenworth,Correctional Facility,12,KS,Proposed For Withdrawal,6/19/1995,12/28/2018,,Leavenworth County,Unknown,,12,2.19,3278,,1300 Metropolitan Ave,Leavenworth,66048-1254,Region VII,Rural,-94.93495228,39.32776448
606999060C,Federal Correctional Institution - Terminal Island,Correctional Facility,12,CA,Proposed For Withdrawal,6/19/1995,12/28/2018,,Los Angeles County,Unknown,,1,0.73,1091,,1299 S Seaside Ave,San Pedro,90731-7359,Region IX,Non-Rural,-118.2687563,33.72951272
6425444843,Federal Correctional Institution - McKean,Correctional Facility,12,PA,Proposed For Withdrawal,6/19/1995,12/28/2018,,McKean County,Unknown,,12,1.42,2137,,6975 Route 59,Lewis Run,16738,Region III,Rural,-78.68904235,41.7938846
6061810371,Federal Correctional Complex-Lompoc,Correctional Facility,12,CA,Proposed For Withdrawal,6/19/1995,12/28/2018,,Santa Barbara County,Unknown,,12,3.24,4856,,3901 Klein Blvd,Lompoc,93436-2706,Region IX,Non-Rural,-120.505631,34.67635973
6229992217,Federal Correctional Complex - Oakdale,Correctional Facility,18,LA,Proposed For Withdrawal,7/18/1995,12/28/2018,,Allen Parish,Unknown,,1,1.6,2392,,1507 E Whatley Rd,Oakdale,71463-2318,Region VI,Rural,-92.62871155,30.83218695
6457341145,Federal Correctional Institution - Estill,Correctional Facility,18,SC,Proposed For Withdrawal,7/18/1995,12/28/2018,,Hampton County,Unknown,,12,1.32,1985,,100 Prison Rd,Estill,29918,Region IV,Rural,-81.25068067,32.713656
6557600999,Federal Correctional Institution - Oxford,Correctional Facility,12,WI,Proposed For Withdrawal,7/18/1995,12/28/2018,,Adams County,Unknown,,12,1.67,2503,,350 Elk Ave,Oxford,53952-9611,Region V,Rural,-89.6450318,43.86172046
6218189939,Federal Correctional Institution - Manchester,Correctional Facility,12,KY,Proposed For Withdrawal,7/18/1995,12/28/2018,,Clay County,Unknown,,12,1.41,2119,,805 Fox Hollow Rd,Manchester,40962-7923,Region IV,Rural,-83.78749204,37.18163596
6348900958,Federal Correctional Institution - Fairton,Correctional Facility,12,NJ,Proposed For Withdrawal,7/18/1995,12/28/2018,,Cumberland County,Unknown,,12,5.73,8592,,655 Fairton Millville Rd,Fairton,08320-2000,Region II,Rural,-75.21691399,39.380469
6089990809,Federal Correctional Complex - Florence,Correctional Facility,12,CO,Proposed For Withdrawal,7/18/1995,12/28/2018,,Fremont County,Unknown,,1,2.14,3216,,5880 Highway 67 S,Florence,81290-1000,Region VIII,Rural,-105.107127,38.36071195
6046458449,Federal Correctional Institution - Phoenix,Correctional Facility,12,AZ,Proposed For Withdrawal,7/18/1995,12/28/2018,,Maricopa County,Unknown,,12,1.98,2963,,37900 N 45th Ave,Phoenix,85086-7008,Region IX,Non-Rural,-112.1561911,33.87221323
6478958211,Federal Correctional Institution - Memphis,Correctional Facility,12,TN,Proposed For Withdrawal,7/18/1995,12/28/2018,,Shelby County,Unknown,,12,1.86,2787,,1101 John A Denie Rd,Memphis,38134-7630,Region IV,Non-Rural,-89.86423887,35.15547839
6176056307,USP-Marion,Correctional Facility,12,IL,Proposed For Withdrawal,7/18/1995,12/28/2018,,Williamson County,Unknown,,12,1.69,2532,,4500 Prison Rd,Marion,62959-9011,Region V,Non-Rural,-88.98750559,37.6613224
6406117551,Federal Correctional Institution - El Reno,Correctional Facility,6,OK,Proposed For Withdrawal,7/18/1995,12/28/2018,,Canadian County,Unknown,,6,0.81,2419,,4205 E Highway 66,El Reno,73036-9701,Region VI,Non-Rural,-97.91157025,35.50806722
6089990810,USP Florence,Correctional Facility,0,CO,Withdrawn,7/18/1995,2/27/2007,2/27/2007,,Non-Metropolitan,,,0,,,,,,Region VIII,Unknown,-105.5478164,38.99855056
6089990808,Federal Correctional Institution - Englewood,Correctional Facility,0,CO,Withdrawn,7/18/1995,2/27/2007,2/27/2007,,Metropolitan,,,0,,,,,,Region VIII,Unknown,-105.5478164,38.99855056
6229992219,Elayn Hunt Correctional Center,Correctional Facility,0,LA,Withdrawn,8/29/1995,9/15/2000,9/15/2000,,Non-Metropolitan,,0.7,0.7,,,,,,Region VI,Unknown,-91.42641999,30.18584616
6479994710,Woods Clinic,Other Facility,0,TN,Withdrawn,9/3/1997,11/3/2011,11/3/2011,,Metropolitan,,,0,,,,,,Region IV,Unknown,-86.34305117,35.84300269
6481504942,Federal Correctional Institution - Three Rivers,Correctional Facility,15,TX,Proposed For Withdrawal,9/12/1997,12/28/2018,,Live Oak County,Unknown,,12,1.55,2327,,TX-72 W,Three Rivers,78071,Region VI,Rural,-98.14319225,28.48900918
6089990814,Florence Admax USP,Correctional Facility,0,CO,Withdrawn,9/12/1997,2/27/2007,2/27/2007,,Non-Metropolitan,,,0,,,,,,Region VIII,Unknown,-105.5478164,38.99855056
6489994838,Federal Correctional Institution - Seagoville,Correctional Facility,12,TX,Proposed For Withdrawal,9/17/1997,12/28/2018,,Dallas County,Unknown,,1,1.24,1861,,2113 N Highway 175,Seagoville,75159-2237,Region VI,Non-Rural,-96.56537274,32.65783176
6247575772,Federal Correctional Institution - Cumberland,Correctional Facility,12,MD,Proposed For Withdrawal,9/18/1997,12/28/2018,,Allegany County,Unknown,,12,1.67,2511,,14601 Burbridge Rd SE,Cumberland,21502-8724,Region III,Non-Rural,-78.75301199,39.59685778
6129991241,Federal Correctional Institution - Miami,Correctional Facility,12,FL,Proposed For Withdrawal,9/23/1997,12/28/2018,,Miami-Dade County,Unknown,,1,0.75,1127,,15801 SW 137th Ave,Miami,33177-1209,Region IV,Non-Rural,-80.41441599,25.62003652
6129991240,Federal Correctional Complex Coleman,Correctional Facility,0,FL,Withdrawn,9/23/1997,2/27/2007,2/27/2007,,Non-Metropolitan,,,0,,,,,,Region IV,Unknown,-81.68864878,28.56604489
6042972918,Federal Correctional Complex-Tucson,Correctional Facility,12,AZ,Proposed For Withdrawal,9/24/1997,12/28/2018,,Pima County,Unknown,,12,4.51,6766,,9300 S Wilmot Rd,Tucson,85756-9706,Region IX,Non-Rural,-110.8579934,32.08303281
6177203544,Federal Correctional Institution - Pekin,Correctional Facility,18,IL,Proposed For Withdrawal,9/30/1997,12/28/2018,,Tazewell County,Unknown,,12,1.47,2206,,2600 S 2nd St,Pekin,61554-8297,Region V,Non-Rural,-89.66448432,40.53460241
6179991727,Federal Correctional Institution - Greenville,Correctional Facility,15,IL,Proposed For Withdrawal,9/30/1997,12/28/2018,,Bond County,Unknown,,1,1.6,2403,,US-40,Greenville,62246,Region V,Non-Rural,-89.4027441,38.8741839
6549483444,Federal Correctional Institution - Beckley,Correctional Facility,12,WV,Proposed For Withdrawal,9/30/1997,12/28/2018,,Raleigh County,Unknown,,12,2.48,3714,,1600 Industrial Park Rd,Beaver,25813-9529,Region III,Non-Rural,-81.12480854,37.80717511
6185383562,Federal Correctional Institution - Terre Haute,Correctional Facility,12,IN,Proposed For Withdrawal,9/30/1997,12/28/2018,,Vigo County,Unknown,,12,6.28,9424,,4700 Bureau Rd N,Terre Haute,47802-8246,Region V,Non-Rural,-87.45122361,39.4127855
626999261A,Kalamazoo County Dental Office,Other Facility,0,MI,Withdrawn,9/30/1997,6/29/2012,6/29/2012,Kalamazoo County,Metropolitan,,,0,,,2410 E G Ave,Kalamazoo,49004-1943,Region V,Non-Rural,-85.55053049,42.33269151
6049990436,Maricopa County Jails,Correctional Facility,0,AZ,Withdrawn,10/28/1997,11/3/2011,11/3/2011,,Metropolitan,,,7.2,,,,,,Region IX,Unknown,-111.664754,34.29301645
6249992420,Health Care for the Homeless Facility,Other Facility,0,MD,Withdrawn,12/2/1997,2/22/2012,2/22/2012,Baltimore City,Metropolitan,,,0,,,421 Fallsway,Baltimore,21202-4800,Region III,Non-Rural,-76.60876992,39.29308563
6369993659,Federal Correctional Institution - Raybrook,Correctional Facility,0,NY,Withdrawn,2/6/1998,2/27/2007,2/27/2007,,Non-Metropolitan,,,0,,,,,,Region II,Unknown,-75.61070144,42.93708397
6419883509,Federal Correctional Institution - Sheridan,Correctional Facility,12,OR,Proposed For Withdrawal,3/31/1998,12/28/2018,,Yamhill County,Unknown,,12,4.01,6016,,27072 SW Ballston Rd,Sheridan,97378-9620,Region X,Rural,-123.395601,45.08399348
6279123222,Federal Medical Center-Rochester,Correctional Facility,12,MN,Proposed For Withdrawal,5/8/1998,12/28/2018,,Olmsted County,Unknown,,12,1.79,2688,,2110 E Center St,Rochester,55904-4754,Region V,Non-Rural,-92.4394021,44.0233269
6239992329,Dorothea Dix Psychiatric Center,Other Facility,17,ME,Proposed For Withdrawal,6/9/1998,12/28/2018,,Penobscot County,Unknown,,,0,,,656 State St,Bangor,04401-5609,Region I,Non-Rural,-68.74330616,44.81175215
6239992328,Riverview Psychiatric Center,Other Facility,0,ME,Withdrawn,6/9/1998,6/29/2012,6/29/2012,Kennebec County,Non-Metropolitan,,,0,,,250 Arsenal St,Augusta,04330-5742,Region I,Rural,-69.76949579,44.30053372
6131099534,Coastal State Prison,Correctional Facility,6,GA,Designated,9/30/1998,8/9/2018,,Chatham County,Unknown,,6,1.69,3734,,200 Gulfstream Rd,Savannah,31408-9677,Region IV,Non-Rural,-81.19076211,32.1425328
6449994410,Thundermist Health Center of South County,Other Facility,0,RI,Withdrawn,2/10/1999,10/26/2002,10/26/2002,,Metropolitan,,,0,,,,,,Region I,Unknown,-71.45431946,41.48871294
6121808296,Jefferson Correctional Institution,Correctional Facility,15,FL,Designated,3/12/1999,12/31/2018,,Jefferson County,Unknown,,6,0.96,2635,,1050 Big Joe Rd,Monticello,32344-5188,Region IV,Non-Rural,-83.79737595,30.5073583
6129991272,Liberty Correctional Institution,Correctional Facility,15,FL,Proposed For Withdrawal,3/12/1999,12/28/2018,,Liberty County,Unknown,,1.3,3.49,6580,,11064 NW Dempsey Barron Rd,Bristol,32321-2622,Region IV,Rural,-84.86624644,30.46451628
6129991253,Columbia Correctional Institution,Correctional Facility,12,FL,Proposed For Withdrawal,3/12/1999,12/28/2018,,Columbia County,Unknown,,3,0.3,2392,,216 SE Corrections Way,Lake City,32025-2013,Region IV,Rural,-82.50247127,30.19335156
6125922751,Gulf Correctional Institution,Correctional Facility,12,FL,Designated,3/12/1999,8/2/2018,,Gulf County,Unknown,,12,4.65,6977,,500 Ike Steele Rd,Wewahitchka,32465-2428,Region IV,Non-Rural,-85.26171643,30.17174865
6128088996,Avon Park Correctional Institution,Correctional Facility,12,FL,Designated,3/12/1999,7/6/2018,,Highlands County,Unknown,,12,1.39,2079,,8100 County Road 64 E,Avon Park,33825-6801,Region IV,Non-Rural,-81.40365591,27.64639176
6124898242,Jackson Correctional Institution,Correctional Facility,12,FL,Designated,3/12/1999,8/2/2018,,Jackson County,Unknown,,12,2.32,3484,,5563 10th St,Malone,32445-3129,Region IV,Rural,-85.1632397,30.96954667
6129860972,Mayo Correctional Institution,Correctional Facility,12,FL,Designated,3/12/1999,7/6/2018,,Lafayette County,Unknown,,12,2.16,3240,,8784 W US 27,Mayo,32066-3458,Region IV,Rural,-83.31084813,30.12921401
6121511274,Santa Rosa Correctional Institution,Correctional Facility,12,FL,Designated,3/12/1999,9/27/2018,,Santa Rosa County,Unknown,,12,1.83,2742,,5850 E Milton Rd,Milton,32583-7914,Region IV,Non-Rural,-86.97200768,30.6434941
6121515896,CF - Tomoka,Correctional Facility,12,FL,Designated,3/12/1999,10/19/2018,,Volusia County,Unknown,,12,2.56,3843,,3950 Tiger Bay Rd,Daytona Beach,32124-1042,Region IV,Non-Rural,-81.15950193,29.15515556
6128319797,Walton Correctional Institution,Correctional Facility,12,FL,Designated,3/12/1999,10/19/2018,,Walton County,Unknown,,12,1.69,2542,,691 Institution Rd,Defuniak Springs,32433-1850,Region IV,Rural,-86.10640732,30.77510506
6127425668,Desoto Correctional Institution,Correctional Facility,6,FL,Designated,3/12/1999,7/6/2018,,DeSoto County,Unknown,,6,0.62,1835,,13617 SE Highway 70,Arcadia,34266-7800,Region IV,Rural,-81.66262805,27.20941982
6129991264,Holmes Correctional Institution,Correctional Facility,6,FL,Proposed For Withdrawal,3/12/1999,12/28/2018,,Holmes County,Unknown,,1,1.25,3080,,3142 Thomas Dr,Bonifay,32425-4238,Region IV,Rural,-85.67439665,30.75890708
6129991271,Lake Correctional Institution,Correctional Facility,6,FL,Proposed For Withdrawal,3/12/1999,12/28/2018,,Lake County,Unknown,,1.6,1.19,1970,,19225 US Highway 27,Clermont,34715-9025,Region IV,Non-Rural,-81.7681504,28.62867718
6129991274,Marion Correctional Institution,Correctional Facility,6,FL,Proposed For Withdrawal,3/12/1999,12/28/2018,,Marion County,Unknown,,0.1,1.56,2606,,3269 NW 105th St,Ocala,34475-1328,Region IV,Non-Rural,-82.17769031,29.30601869
6124806400,Polk Correctional Institution,Correctional Facility,6,FL,Designated,3/12/1999,9/25/2018,,Polk County,Unknown,,6,1.95,3820,,10800 Evans Rd,Polk City,33868-6925,Region IV,Non-Rural,-81.77814742,28.18982053
6123422925,Calhoun Correctional Institution,Correctional Facility,3,FL,Designated,3/12/1999,11/30/2018,,Calhoun County,Unknown,,3,0.43,2443,,19562 SE Institution Dr,Blountstown,32424-5156,Region IV,Rural,-85.0634308,30.40850552
6129991252,Charlotte Correctional Institute,Correctional Facility,3,FL,Proposed For Withdrawal,3/12/1999,12/28/2018,,Charlotte County,Unknown,,3,0.11,971,,33123 Oil Well Rd,Punta Gorda,33955-9701,Region IV,Rural,-81.90582692,26.81062294
6124974309,Century Correctional Institution,Correctional Facility,3,FL,Designated,3/12/1999,8/22/2016,,Escambia County,Unknown,,3,0,1200,,400 Tedder Rd,Century,32535-3659,Region IV,Non-Rural,-87.29175132,30.95590049
6129884501,Lancaster Correctional Institution,Correctional Facility,3,FL,Designated,3/12/1999,7/6/2018,,Gilchrist County,Unknown,,3,0.52,1679,,3449 SW STATE,Trenton,32693,Region IV,Non-Rural,-82.81901489,29.6141641
6124712065,Hamilton Correctional Institution,Correctional Facility,3,FL,Designated,3/12/1999,7/6/2018,,Hamilton County,Unknown,,3,0.95,3225,,5205 SW 99th Ave,Jasper,32052-3713,Region IV,Rural,-82.98062487,30.48700547
6127758397,Hardee Correctional Institution,Correctional Facility,3,FL,Designated,3/12/1999,7/6/2018,,Hardee County,Unknown,,3,0.4,2405,,6901 State Road 62,Bowling Green,33834-8976,Region IV,Rural,-82.00956008,27.59495853
6123378444,Madison Correctional Institution,Correctional Facility,3,FL,Designated,3/12/1999,7/6/2018,,Madison County,Unknown,,3,0.91,2986,,382 SW Mci Way,Madison,32340-4430,Region IV,Rural,-83.42086227,30.44283803
6129991276,Okaloosa Correctional Institution,Correctional Facility,3,FL,Proposed For Withdrawal,3/12/1999,12/28/2018,,Miami-Dade County,Unknown,,0.5,0.5,1945,,16555 NW 25th Ave,Opa Locka,33054-6583,Region IV,Non-Rural,-80.24260043,25.92488588
6125076253,Dade Correctional Institution,Correctional Facility,3,FL,Designated,3/12/1999,7/6/2018,,Miami-Dade County,Unknown,,3,1.17,3550,,19000 SW 377th St,Florida City,33034-6405,Region IV,Non-Rural,-80.49847233,25.41367382
6124812658,Sumter Correctional Institution,Correctional Facility,3,FL,Designated,3/12/1999,10/19/2018,,Sumter County,Unknown,,3,0.82,3026,,9544 C 476B,Bushnell,33513-8612,Region IV,Rural,-82.20349178,28.61747163
6129991281,Reception and Medical Center (Rmc),Correctional Facility,3,FL,Proposed For Withdrawal,3/12/1999,12/28/2018,,Union County,Unknown,,4.3,4.79,14378,,7765 S County Road 231,Lake Butler,32054-5721,Region IV,Rural,-82.35563851,29.98772248
6129991268,Apalachee Correctional Institution,Correctional Facility,0,FL,Withdrawn,3/12/1999,6/25/2014,6/25/2014,Jackson County,Non-Metropolitan,,,-0.39,,,35 Apalachee Dr,Sneads,32460-4166,Region IV,Rural,-84.88008197,30.702345
6129991277,Central Florida Reception Center,Correctional Facility,0,FL,Withdrawn,3/12/1999,6/25/2014,6/25/2014,Orange County,Metropolitan,,,-0.13,,,7000 H C Kelley Rd,Orlando,32831-2518,Region IV,Non-Rural,-81.15384048,28.46295551
6129991278,Zephyrhills Correctional Institution,Correctional Facility,0,FL,Withdrawn,3/12/1999,6/25/2014,6/25/2014,Pasco County,Metropolitan,,,-0.07,,,2739 Gall Blvd,Zephyrhills,33541-9701,Region IV,Non-Rural,-82.19616425,28.1974489
6129991266,River Junction Correctional Institution,Correctional Facility,0,FL,Withdrawn,3/12/1999,11/3/2011,11/3/2011,,Non-Metropolitan,,,0.6,,,,,,Region IV,Unknown,-81.68864878,28.56604489
6129991265,Indian River Correctional Institution,Correctional Facility,0,FL,Withdrawn,3/12/1999,11/3/2011,11/3/2011,,Non-Metropolitan,,,0.7,,,,,,Region IV,Unknown,-81.68864878,28.56604489
6129991262,Hendry Correctional Institution,Correctional Facility,0,FL,Withdrawn,3/12/1999,11/3/2011,11/3/2011,,Non-Metropolitan,,,1.1,,,,,,Region IV,Unknown,-81.68864878,28.56604489
6129991255,South Florida Reception Center,Correctional Facility,0,FL,Withdrawn,3/12/1999,11/3/2011,11/3/2011,,Metropolitan,,,13,,,,,,Region IV,Unknown,-81.68864878,28.56604489
6129991249,Brevard Correctional Institution,Correctional Facility,0,FL,Withdrawn,3/12/1999,11/3/2011,11/3/2011,,Metropolitan,,,-0.33,,,,,,Region IV,Unknown,-81.68864878,28.56604489
6129991248,Florida State Prison,Correctional Facility,0,FL,Withdrawn,3/12/1999,11/3/2011,11/3/2011,,Metropolitan,,,-1.41,,,,,,Region IV,Unknown,-81.68864878,28.56604489
6129991247,Lawtey Correctional Institution,Correctional Facility,0,FL,Withdrawn,3/12/1999,11/3/2011,11/3/2011,,Metropolitan,,,0,,,,,,Region IV,Unknown,-81.68864878,28.56604489
6129991246,Community Health Centers of Pinellas,Correctional Facility,0,FL,Withdrawn,3/12/1999,11/3/2011,11/3/2011,,Metropolitan,,,0,,,,,,Region IV,Unknown,-81.68864878,28.56604489
6489994840,Beto Prison,Correctional Facility,0,TX,Withdrawn,3/31/1999,6/29/2012,6/29/2012,Anderson County,Non-Metropolitan,,,1.1,,,1391 Fm 3328,Tennessee Colony,75880-5000,Region VI,Rural,-95.82704568,31.76080713
6489994842,McConnell Prison,Correctional Facility,0,TX,Withdrawn,3/31/1999,6/29/2012,6/29/2012,Bee County,Non-Metropolitan,,,0.2,,,3001 Emily Dr,Beeville,78102-8696,Region VI,Rural,-97.72042072,28.37321442
6489994839,Mountain View Prison,Correctional Facility,0,TX,Withdrawn,3/31/1999,6/29/2012,6/29/2012,Coryell County,Non-Metropolitan,,,0.2,,,2305 Ransom Rd,Gatesville,76528-2962,Region VI,Rural,-97.73019069,31.48534225
642999425Y,Community Action Medical Services Corporation,Federally Qualified Health Center Look A Like,0,PA,Withdrawn,4/22/1999,10/1/2008,,Fayette County,Non-Metropolitan,,,0,,,140 N Beeson Ave,Uniontown,15401-2937,Region III,Non-Rural,-79.72546681,39.90610466
6139991322,"Procare at Midtown, Inc.",Other Facility,0,GA,Withdrawn,6/30/1999,11/3/2011,11/3/2011,,Metropolitan,,,0,,,,,,Region IV,Unknown,-83.4445344,32.64832455
6131527963,Dodge State Prison,Correctional Facility,12,GA,Designated,7/29/1999,8/9/2018,,Dodge County,Unknown,,12,1.49,2232,,2971 Old Bethel Rd,Chester,31012-2659,Region IV,Rural,-83.16388228,32.3906921
6139991325,Hancock State Prison,Correctional Facility,12,GA,Proposed For Withdrawal,7/29/1999,12/28/2018,,Hancock County,Unknown,,0.4,0.07,1420,,701 Prison Blvd,Sparta,31087-8133,Region IV,Rural,-82.948361,33.24369089
6139991330,Wilcox State Prison,Correctional Facility,12,GA,Proposed For Withdrawal,7/29/1999,12/28/2018,,Wilcox County,Unknown,,0.2,1.41,3612,,472 Broad St S,Abbeville,31001-4451,Region IV,Rural,-83.30658043,31.98663954
6139991326,Georgia Diagnostic Prison,Correctional Facility,6,GA,Proposed For Withdrawal,7/29/1999,12/28/2018,,Butts County,Unknown,,9.2,10.13,18200,,2978 Highway 36 W,Jackson,30233-6150,Region IV,Non-Rural,-84.0522621,33.21505593
6139991323,Calhoun State Prison,Correctional Facility,6,GA,Proposed For Withdrawal,7/29/1999,12/28/2018,,Calhoun County,Unknown,,1.8,1.43,3269,,27823 Main St,Morgan,39866-3716,Region IV,Rural,-84.60823614,31.53773512
6139991327,Metro State Prison,Correctional Facility,6,GA,Withdrawn,7/29/1999,6/27/2013,6/27/2013,DeKalb County,Metropolitan,,,1.29,,,1301 Constitution Rd SE,Atlanta,30316-4603,Region IV,Non-Rural,-84.33646374,33.68905653
6139991329,Phillips State Prison,Correctional Facility,0,GA,Withdrawn,7/29/1999,11/3/2011,11/3/2011,,Metropolitan,,,0.1,,,,,,Region IV,Unknown,-83.4445344,32.64832455
6139991328,Middle Georgia Corrections Complex,Correctional Facility,0,GA,Withdrawn,7/29/1999,11/3/2011,11/3/2011,,Metropolitan,,,5.1,,,,,,Region IV,Unknown,-83.4445344,32.64832455
6086446315,Denver Reception and Diagnostic Center,Correctional Facility,6,CO,Designated,9/2/1999,8/31/2018,,Denver County,Unknown,,6,24.14,37806,,10990 Smith Rd,Denver,80239-3262,Region VIII,Non-Rural,-104.866054,39.76844082
6082270796,Fremont Correctional Facility,Correctional Facility,3,CO,Designated,9/2/1999,8/29/2018,,Fremont County,Unknown,,3,0.47,2060,,US-50 E & Evans Rd,Canon City,81212,Region VIII,Rural,-105.1558515,38.447946
6081759605,Colorado State Penitentiary,Correctional Facility,3,CO,Designated,9/2/1999,8/29/2018,,Fremont County,Unknown,,3,0.21,912,,Evans Rd,Canon City,81212,Region VIII,Rural,-105.1576058,38.42963012
6089990818,Centennial Correctional Facility,Correctional Facility,0,CO,Proposed For Withdrawal,9/2/1999,8/24/2018,,Fremont County,Unknown,,0.1,-0.04,997,,US-50 E & Evans Rd,Canon City,81212,Region VIII,Rural,-105.1558515,38.447946
6089990820,Denver Women's Correctional Facility,Correctional Facility,0,CO,Withdrawn,9/2/1999,11/3/2011,11/3/2011,,Metropolitan,,,0.2,,,,,,Region VIII,Unknown,-105.5478164,38.99855056
6089990815,Colorado Territorial Correctional Facility,Correctional Facility,0,CO,Withdrawn,9/2/1999,11/3/2011,11/3/2011,,Non-Metropolitan,,,0.5,,,,,,Region VIII,Unknown,-105.5478164,38.99855056
6139991334,Smyrna Health Center,Other Facility,0,GA,Withdrawn,11/10/1999,11/3/2011,11/3/2011,,Metropolitan,,,0,,,,,,Region IV,Unknown,-83.4445344,32.64832455
6139991333,Douglas Health Center,Other Facility,0,GA,Withdrawn,11/10/1999,11/3/2011,11/3/2011,,Metropolitan,,,0,,,,,,Region IV,Unknown,-83.4445344,32.64832455
6139991332,Marietta Health Center,Other Facility,0,GA,Withdrawn,11/10/1999,9/15/2000,9/15/2000,,Metropolitan,,,0,,,,,,Region IV,Unknown,-83.4445344,32.64832455
6419994145,Snake River Correctional Institution,Correctional Facility,6,OR,Proposed For Withdrawal,12/15/1999,12/28/2018,,Malheur County,Unknown,,0.2,1.97,4297,,777 Stanton Blvd,Ontario,97914-8335,Region X,Rural,-117.0610419,44.08250053
6336401555,State Prison for Men - Concord,Correctional Facility,3,NH,Designated,3/6/2000,7/6/2018,,Merrimack County,Unknown,,3,0.02,2189,,291 N State St,Concord,03301-3227,Region I,Rural,-71.55824544,43.22871153
6339993304,State Correctional Institution - Laconia,Correctional Facility,0,NH,Withdrawn,3/6/2000,11/3/2011,11/3/2011,,Non-Metropolitan,,,0.1,,,,,,Region I,Unknown,-71.57759673,43.68552524
6539995343,Twin Rivers Correctional Center,Correctional Facility,0,WA,Withdrawn,4/20/2000,11/3/2011,11/3/2011,,Metropolitan,,,0.8,,,,,,Region X,Unknown,-120.5562632,47.41125184
6129991294,Pinellas County Correctional Institution,Correctional Facility,0,FL,Withdrawn,9/13/2000,11/3/2011,11/3/2011,,Metropolitan,,,11.7,,,,,,Region IV,Unknown,-81.68864878,28.56604489
6499994929,Central Utah Correctional Facility,Correctional Facility,3,UT,Proposed For Withdrawal,11/24/2000,12/28/2018,,Sanpete County,Unknown,,0.3,0.16,3088,,255 E 300th N,Gunnison,84634,Region VIII,Rural,-111.81533,39.15181
6389993804,Family Health Care Center,Other Facility,0,ND,Withdrawn,11/27/2000,10/14/2005,10/14/2005,,Non-Metropolitan,,,0,,,,,,Region VIII,Unknown,-100.4693874,47.44627334
6179991747,Milestone Dental Clinic,Other Facility,17,IL,Withdrawn,12/10/2000,7/2/2018,7/2/2018,Winnebago County,Unknown,,,0,,,275 N Phelps Ave,Rockford,61108-2434,Region V,Non-Rural,-89.00399202,42.26779948
6239992396,Guilford Medical Associates,Rural Health Clinic,22,ME,Designated,1/4/2001,4/6/2017,,Piscataquis County,Non-Metropolitan,,,0,,,3 Park St,Guilford,04443-6383,Region I,Rural,-69.37985497,45.16688236
6288787679,South Mississippi Correctional Institution,Correctional Facility,12,MS,Designated,1/16/2001,7/23/2018,,Greene County,Unknown,,3,0.91,3159,,22689 HWY 63NORTH,Leakesville,39451,Region IV,Rural,-88.55505219,31.1557651
6287727425,Central Mississippi Correctional Facility,Correctional Facility,6,MS,Designated,1/16/2001,9/11/2018,,Rankin County,Unknown,,6,5.62,11668,,3794 Highway 468 W,Pearl,39208-9008,Region IV,Non-Rural,-90.05787528,32.23106803
6139991336,Good Samaritan Health Center,Other Facility,0,GA,Withdrawn,1/31/2001,6/29/2012,6/29/2012,Fulton County,Metropolitan,,,0,,,1015 Donald Lee Hollowell Pkwy NW,Atlanta,30318-6653,Region IV,Non-Rural,-84.42054063,33.77321146
6239992398,Dexter Internal Medicine,Rural Health Clinic,22,ME,Designated,4/1/2001,1/25/2013,,Penobscot County,Non-Metropolitan,,,0,,,41 High St,Dexter,04930-1311,Region I,Rural,-69.28729132,45.02168865
6239992395,Milo Family Practice,Rural Health Clinic,22,ME,Designated,4/1/2001,4/6/2017,,Piscataquis County,Non-Metropolitan,,,0,,,135 Park St,Milo,04463-1729,Region I,Rural,-68.99174868,45.26414101
6239992397,Corinna Family Practice,Rural Health Clinic,18,ME,Designated,4/1/2001,6/8/2012,,Penobscot County,Non-Metropolitan,,,0,,,110 Dexter Rd,Corinna,04928-3314,Region I,Non-Rural,-69.25529087,44.92810931
6239992394,Dover-Foxcroft Family Medicine,Rural Health Clinic,16,ME,Designated,4/1/2001,4/6/2017,,Piscataquis County,Non-Metropolitan,,,0,,,891 W Main St Ste 200,Dover Foxcroft,04426-1060,Region I,Rural,-69.23773843,45.18655746
6239992399,Dexter Family Practice,Rural Health Clinic,16,ME,Designated,4/1/2001,12/17/2014,,Somerset County,Non-Metropolitan,,,0,,,24 Main St,Dexter,04930-1375,Region I,Rural,-69.37172186,44.99122971
6384734589,North Dakota State Penitentiary,Correctional Facility,3,ND,Designated,4/10/2001,12/27/2017,,Burleigh County,Unknown,,3,0.43,2078,,3100 Railroad Ave,Bismarck,58501-5011,Region VIII,Non-Rural,-100.7413167,46.79823931
6519995133,Free Clinic of Central Virginia,Other Facility,0,VA,Withdrawn,6/4/2001,11/3/2011,11/3/2011,,Non-Metropolitan,,,0,,,,,,Region III,Unknown,-78.69794871,37.5128205
617999170F,Bridgview Dental Clinic,Other Facility,0,IL,Withdrawn,6/27/2001,11/3/2011,11/3/2011,,Metropolitan,,,0,,,,,,Region V,Unknown,-89.1586509,40.11404657
6159991533,Hui Malama-Ola Noa O'Iwi,Federally Qualified Health Center,0,HI,Withdrawn,8/1/2001,5/1/2013,,Hawaii County,Non-Metropolitan,,,0,,,69A Railroad Ave,Hilo,96720-4564,Region IX,Rural,-155.0611062,19.70720153
6139991350,Washington State Prison,Correctional Facility,12,GA,Withdrawn,9/10/2001,6/27/2013,6/27/2013,Washington County,Non-Metropolitan,,,1,,,GA Highway 24 E,Davisboro,31018,Region IV,Rural,-82.60800685,32.98738026
6083979202,Sterling Correctional Facility,Correctional Facility,6,CO,Designated,10/23/2001,8/2/2018,,Logan County,Unknown,,6,1.49,2648,,12101 Highway 61,Sterling,80751-8428,Region VIII,Rural,-103.1574318,40.61378028
617999170M,Cook County Correctional Institution,Correctional Facility,0,IL,Withdrawn,12/10/2001,11/3/2011,11/3/2011,,Metropolitan,,,0,,,,,,Region V,Unknown,-89.1586509,40.11404657
612999123T,Immigration and Customs Enforcement - Krome,Correctional Facility,0,FL,Withdrawn,12/13/2001,3/15/2011,3/15/2011,,Metropolitan,,,1.9,,,,,,Region IV,Unknown,-81.68864878,28.56604489
612999128Q,Family Practice Center of Avon Park,Rural Health Clinic,8,FL,Designated,1/1/2002,1/1/2002,,Highlands County,Non-Metropolitan,,,0,,,1006 W Pleasant St,Avon Park,33825-2966,Region IV,Non-Rural,-81.5131035,27.5992275
63699936F5,"Hunts Point Multi-Service Center, Inc.",Federally Qualified Health Center Look A Like,0,NY,Designated,1/1/2002,1/1/2002,,Bronx County,Metropolitan,,,0,,,754 E 151st St,Bronx,10455-3267,Region II,Non-Rural,-73.90704929,40.81476686
64899948MM,Travis County Healthcare District/Dba Communitycar,Federally Qualified Health Center,13,TX,Designated,2/1/2002,4/18/2014,,Travis County,Metropolitan,,,0,1,,1111 E Cesar Chavez St,Austin,78702-4209,Region VI,Non-Rural,-97.73290343,30.25995874
6049990445,Arizona State Prison Complex-Perryville,Correctional Facility,3,AZ,Withdrawn,3/13/2002,6/25/2014,6/25/2014,Maricopa County,Metropolitan,,,1.51,,,2105 N Citrus Rd,Goodyear,85395-9204,Region IX,Non-Rural,-112.4441066,33.4684135
6044084368,CF-Arizona State Prison-Phoenix,Correctional Facility,12,AZ,Designated,3/15/2002,10/26/2018,,Maricopa County,Unknown,,12,2.31,3467,,2500 E Van Buren St,Phoenix,85008-6037,Region IX,Non-Rural,-112.0259025,33.45135352
6049990447,Arizona State Prison - Tucson,Correctional Facility,12,AZ,Proposed For Withdrawal,3/15/2002,12/27/2018,,Pima County,Unknown,,0,7.06,13443,,10000 S Wilmot Rd,Tucson,85756-8699,Region IX,Non-Rural,-110.8580134,32.07532477
6049990449,Arizona State Prison - Winslow,Correctional Facility,18,AZ,Proposed For Withdrawal,3/22/2002,12/27/2018,,Navajo County,Unknown,,0.7,3.13,6128,,2100 S Highway 87,Winslow,86047-9789,Region IX,Rural,-110.7146211,34.98507126
6049990450,Arizona State Prison - Safford,Correctional Facility,15,AZ,Proposed For Withdrawal,3/22/2002,12/27/2018,,Graham County,Unknown,,1,3.09,5378,,896 S Cook Rd,Safford,85546-7526,Region IX,Rural,-109.5624755,32.83093555
6049369687,CF-Arizona State Prison-Douglas,Correctional Facility,3,AZ,Designated,3/22/2002,11/30/2018,,Cochise County,Unknown,,3,0.21,1964,,6911 N Bdi Blvd,Douglas,85607-6202,Region IX,Rural,-109.5956155,31.45488646
6044743536,CF-Arizona State Prison-Yuma,Correctional Facility,12,AZ,Designated,3/25/2002,12/26/2018,,Yuma County,Unknown,,3,0.63,5151,,7125 E Juan Sanchez Blvd,San Luis,85349,Region IX,Non-Rural,-114.6481878,32.4958092
606999061W,Immigration and Customs Enforcement Medical Facili,Correctional Facility,0,CA,Withdrawn,5/7/2002,8/9/2004,8/9/2004,,Non-Metropolitan,,,0,,,,,,Region IX,Unknown,-119.27023,36.37410569
6409994090,Mary Mahoney Health Center @ Langston,Federally Qualified Health Center,18,OK,Designated,6/1/2002,6/1/2002,,Logan County,Metropolitan,,,0,,,300 N Martin Luther King Ave,Coyle,73027,Region VI,Non-Rural,-97.25190198,35.94421026
6361544553,Metropolitan Correctional Center (Metropolitan Correctional Center) - New York,Correctional Facility,12,NY,Designated,6/7/2002,11/30/2018,,New York County,Unknown,,12,2.42,3627,,150 Park Row,New York,10007-1704,Region II,Non-Rural,-74.00154568,40.71289617
6368781298,Federal Correctional Institution - Otisville,Correctional Facility,12,NY,Proposed For Withdrawal,6/7/2002,12/28/2018,,Orange County,Unknown,,12,0.52,778,,Two Mile Dr,Otisville,10963,Region II,Non-Rural,-74.53558843,41.48262261
6369993679,Metropolitan Detention Center Brooklyn,Correctional Facility,0,NY,Withdrawn,6/7/2002,2/27/2007,2/27/2007,,Metropolitan,,,0,,,,,,Region II,Unknown,-75.61070144,42.93708397
60699906D8,Federal Correctional Institution - Dublin,Correctional Facility,12,CA,Proposed For Withdrawal,6/14/2002,12/28/2018,,Alameda County,Unknown,,1,0.78,1176,,5701 8th St,Dublin,94568-3305,Region IX,Non-Rural,-121.9053544,37.71620936
6063495948,Metropolitan Detention Center-Los Angeles,Correctional Facility,12,CA,Proposed For Withdrawal,6/14/2002,12/28/2018,,Los Angeles County,Unknown,,12,3.23,4843,,535 N Alameda St,Los Angeles,90012-3405,Region IX,Non-Rural,-118.2380071,34.05334564
6063326905,Federal Correctional Complex-Victorville,Correctional Facility,12,CA,Proposed For Withdrawal,6/14/2002,12/28/2018,,San Bernardino County,Unknown,,12,11.04,16565,,13777 Air Expressway Blvd,Victorville,92394-0510,Region IX,Non-Rural,-117.3483693,34.5686096
6063893974,Metropolitan Correctional Center-San Diego,Correctional Facility,12,CA,Proposed For Withdrawal,6/14/2002,12/28/2018,,San Diego County,Unknown,,12,5.11,7670,,808 Union St,San Diego,92101-6030,Region IX,Non-Rural,-117.1656556,32.713947
60699906D9,Federal Correctional Institution - Lompoc,Correctional Facility,0,CA,Withdrawn,6/14/2002,1/22/2007,1/22/2007,,Metropolitan,,,0,,,,,,Region IX,Unknown,-119.27023,36.37410569
6063328648,United States Penitentiary-Atwater,Correctional Facility,12,CA,Proposed For Withdrawal,6/18/2002,12/28/2018,,Merced County,Unknown,,12,1.66,2483,,1 Federal Way,Atwater,95301-5174,Region IX,Non-Rural,-120.55913,37.38297397
6291213475,Mcfp-Springfield,Correctional Facility,12,MO,Proposed For Withdrawal,6/24/2002,12/28/2018,,Greene County,Unknown,,12,1.94,2910,,1900 W Sunshine St,Springfield,65807-2240,Region VII,Non-Rural,-93.31878821,37.18246786
6049990455,Federal Correctional Institution - Safford,Correctional Facility,15,AZ,Proposed For Withdrawal,6/25/2002,12/28/2018,,Graham County,Unknown,,1,0.8,1197,,1529 W State Route 366,Safford,85546-7732,Region IX,Rural,-109.7220667,32.72206745
6154224237,Federal Detention Center-Honolulu,Correctional Facility,12,HI,Proposed For Withdrawal,6/26/2002,12/28/2018,,Honolulu County,Unknown,,12,2.21,3309,,351 Elliott St,Honolulu,96819-1817,Region IX,Non-Rural,-157.926745,21.33766683
6517556626,Federal Correctional Institution - Petersburg,Correctional Facility,12,VA,Proposed For Withdrawal,6/26/2002,12/28/2018,,Prince George County,Unknown,,12,3.69,5539,,1060 River Rd,North Prince George,23860-1666,Region III,Non-Rural,-77.34055664,37.29825938
6489994879,Federal Correctional Institution - La Tuna,Correctional Facility,21,TX,Proposed For Withdrawal,7/1/2002,12/28/2018,,El Paso County,Unknown,,1,0.95,1419,,8500 Doniphan Dr,Anthony,79821-9346,Region VI,Non-Rural,-106.6050269,31.9832167
6489994880,Federal Correctional Institution - Texarkana,Correctional Facility,12,TX,Proposed For Withdrawal,7/1/2002,12/28/2018,,Bowie County,Unknown,,1,0.91,1364,,4001 Leopard Dr,Texarkana,75501-8100,Region VI,Non-Rural,-94.09200837,33.37810266
6174925403,Metropolitan Correctional Center-Chicago,Correctional Facility,12,IL,Proposed For Withdrawal,7/1/2002,12/28/2018,,Cook County,Unknown,,12,2.43,3641,,71 W Van Buren St,Chicago,60605-1004,Region V,Non-Rural,-87.63002918,41.87681255
6099990929,Federal Correctional Institution - Danbury,Correctional Facility,12,CT,Proposed For Withdrawal,7/1/2002,12/28/2018,,Fairfield County,Unknown,,1,0.78,1164,,33 1/2 Pembroke Rd,Danbury,06811-2954,Region I,Non-Rural,-73.47320345,41.44010413
6487872099,Federal Detention Center-Houston,Correctional Facility,12,TX,Proposed For Withdrawal,7/1/2002,12/28/2018,,Harris County,Unknown,,12,5.01,7521,,1200 Texas St,Houston,77002-3505,Region VI,Non-Rural,-95.36067713,29.75876956
6489994875,Federal Correctional Institution - Big Spring,Correctional Facility,12,TX,Proposed For Withdrawal,7/1/2002,12/28/2018,,Howard County,Unknown,,1,1.04,1559,,1900 Simler Ave,Big Spring,79720-7789,Region VI,Rural,-101.5065549,32.22863829
6537117979,Federal Detention Center-Seatac,Correctional Facility,12,WA,Proposed For Withdrawal,7/1/2002,12/28/2018,,King County,Unknown,,12,2.48,3713,,2425 S 200th St,Seatac,98198-5202,Region X,Non-Rural,-122.3015104,47.42269549
6549995437,Federal Correctional Institution - Morgantown,Correctional Facility,12,WV,Proposed For Withdrawal,7/1/2002,12/28/2018,,Monongalia County,Unknown,,1,0.75,1122,,446 Greenbag Rd,Morgantown,26501-7159,Region III,Non-Rural,-79.95179856,39.60583172
6059990509,Federal Correctional Institution - Forrest City,Correctional Facility,12,AR,Proposed For Withdrawal,7/1/2002,12/28/2018,,St. Francis County,Unknown,,5.9,6.03,9051,,1400 Dale Bumpers Dr,Forrest City,72335-2695,Region VI,Rural,-90.80495174,34.97937748
6486448024,Federal Medical Center-Carswell,Correctional Facility,12,TX,Proposed For Withdrawal,7/1/2002,12/28/2018,,Tarrant County,Unknown,,12,3.59,5392,,J ST BLDG 3000,Naval Air Station Jrb,76127,Region VI,Non-Rural,-97.42302389,32.776629
6484046496,Federal Medical Center - Fort Worth,Correctional Facility,12,TX,Designated,7/1/2002,12/31/2018,,Tarrant County,Unknown,,12,1.72,2575,,3150 Horton Rd,Forest Hill,76119-5905,Region VI,Non-Rural,-97.28558401,32.68318319
626999261M,Federal Correctional Institution - Milan,Correctional Facility,0,MI,Withdrawn,7/1/2002,4/10/2007,4/10/2007,,Non-Metropolitan,,,0,,,,,,Region V,Unknown,-84.19669749,44.12519983
642999420Y,Federal Correctional Institution - Loretto,Correctional Facility,12,PA,Proposed For Withdrawal,7/24/2002,12/28/2018,,Cambria County,Unknown,,1.5,0.86,1287,,772 Saint Joseph St,Loretto,15940-7006,Region III,Rural,-78.61749077,40.4977579
612999121Q,Federal Correctional Institution - Tallahassee,Correctional Facility,12,FL,Proposed For Withdrawal,7/24/2002,12/28/2018,,Leon County,Unknown,,1,0.83,1237,,501 Capital Cir NE,Tallahassee,32301-3558,Region IV,Non-Rural,-84.22641863,30.44200201
6129716703,Federal Detention Center-Miami,Correctional Facility,12,FL,Proposed For Withdrawal,7/24/2002,12/28/2018,,Miami-Dade County,Unknown,,12,5.97,8954,,33 NE 4th St,Miami,33132-2111,Region IV,Non-Rural,-80.19316336,25.77804346
6421903643,Federal Detention Center-Philadelphia,Correctional Facility,12,PA,Proposed For Withdrawal,7/24/2002,12/28/2018,,Philadelphia County,Unknown,,12,4.04,6060,,700 Arch St,Philadelphia,19106-1548,Region III,Non-Rural,-75.15171526,39.95294865
6127552087,Federal Correctional Complex-Coleman,Correctional Facility,12,FL,Proposed For Withdrawal,7/24/2002,12/28/2018,,Sumter County,Unknown,,12,10.03,15048,,846 NE 54th Ter,Coleman,33521,Region IV,Rural,-82.01095265,28.76808377
6282597385,Federal Correctional Institution - Yazoo City,Correctional Facility,18,MS,Proposed For Withdrawal,7/25/2002,12/28/2018,,Yazoo County,Unknown,,12,4.65,6971,,2225 Haley Barbour Pkwy,Yazoo City,39194-4796,Region IV,Rural,-90.41941669,32.87415056
6399993960,Federal Correctional Institution - Elkton,Correctional Facility,12,OH,Proposed For Withdrawal,7/25/2002,12/28/2018,,Columbiana County,Unknown,,1,1.69,2529,,8730 Scroggs Rd,Lisbon,44432,Region V,Rural,-80.71191785,40.76798617
6218867241,Federal Medical Center-Lexington,Correctional Facility,12,KY,Designated,7/25/2002,12/31/2018,,Fayette County,Unknown,,12,1.87,2801,,3301 Leestown Rd,Lexington,40511-8702,Region IV,Non-Rural,-84.56816283,38.09951515
6279992749,Federal Correctional Institution - Sandstone,Correctional Facility,12,MN,Proposed For Withdrawal,7/25/2002,12/28/2018,,Pine County,Unknown,,1,0.93,1388,,2300 County Road 29,Sandstone,55072-5161,Region V,Rural,-92.8455436,46.11698576
6273775328,Federal Correctional Institution - Waseca,Correctional Facility,12,MN,Designated,7/25/2002,12/31/2018,,Waseca County,Unknown,,12,0.73,1102,,University Dr SE,Waseca,56093,Region V,Rural,-93.50842733,44.06582197
6451831268,Federal Correctional Institution - Edgefield,Correctional Facility,18,SC,Proposed For Withdrawal,7/29/2002,12/28/2018,,Edgefield County,Unknown,,12,1.88,2818,,501 Gary Hill Rd,Edgefield,29824-4503,Region IV,Rural,-81.92100853,33.75875704
6259992518,Federal Medical Center Devens,Correctional Facility,0,MA,Withdrawn,7/29/2002,3/23/2007,3/23/2007,,Non-Metropolitan,,,0,,,,,,Region I,Unknown,-71.71818499,42.35867032
6229992222,USP Pollock,Correctional Facility,0,LA,Withdrawn,7/29/2002,2/27/2007,2/27/2007,,Non-Metropolitan,,,0,,,,,,Region VI,Unknown,-91.42641999,30.18584616
6349993420,Federal Correctional Institution - Fort Dix,Correctional Facility,12,NJ,Proposed For Withdrawal,7/30/2002,12/28/2018,,Burlington County,Unknown,,1,2.82,4231,,Hartford St & Pointville Rd,Joint Base Mdl,8640,Region II,Rural,-74.61303299,39.99735
6729997267,Metropolitan Detention Center - Guaynabo,Correctional Facility,12,PR,Proposed For Withdrawal,7/30/2002,12/28/2018,,Guaynabo Municipio,Unknown,,3.2,0.96,1433,,PR-28 & PR-165 O,Guaynabo,965,Region II,Non-Rural,-66.1113225,18.42444
6405164064,FTC-Oklahoma City,Correctional Facility,12,OK,Proposed For Withdrawal,7/30/2002,12/28/2018,,Oklahoma County,Unknown,,12,29.81,44711,,7410 S Macarthur Blvd,Oklahoma City,73169-6908,Region VI,Non-Rural,-97.61853565,35.39277147
6409994091,Neochc-Westville,Federally Qualified Health Center,16,OK,Designated,9/1/2002,9/1/2002,,Adair County,Non-Metropolitan,,,0,,,605 Buffington Rd,Westville,74965-7011,Region VI,Rural,-94.57691128,35.99504944
6159991513,Halawa Correctional Facility,Correctional Facility,0,HI,Withdrawn,9/6/2002,6/29/2012,6/29/2012,Honolulu County,Metropolitan,,,1,,,99-902 Moanalua Rd,Aiea,96701-3252,Region IX,Non-Rural,-157.9293292,21.37589435
6339993309,North New Hampshire State Correctional Facility,Correctional Facility,0,NH,Withdrawn,9/9/2002,11/3/2011,11/3/2011,,Non-Metropolitan,,,0,,,,,,Region I,Unknown,-71.57759673,43.68552524
6519630532,USP-Lee,Correctional Facility,18,VA,Proposed For Withdrawal,9/24/2002,12/28/2018,,Lee County,Unknown,,12,1.96,2939,,Hickory Flats Rd,Pennington Gap,24277,Region III,Rural,-83.00304957,36.71685901
63999939B7,Neighborhood Health Care,Federally Qualified Health Center,17,OH,Designated,9/30/2002,9/30/2002,,Hamilton County,Metropolitan,,,0,,,2805 Gilbert Ave,Cincinnati,45206-1210,Region V,Non-Rural,-84.48856819,39.12996719
60499904D5,Fort McDowell Yavapai Nation,Native American/Tribal Facility/Population,19,AZ,Designated,10/1/2002,5/28/2013,,Maricopa County,Non-Metropolitan,,,0,,,16240 N Fort Mcdowell Rd,Fort Mcdowell,85264-3402,Region IX,Rural,-111.6762816,33.63909858
60699906Q1,Native American Health Center - Oakland,Native American/Tribal Facility/Population,17,CA,Designated,10/1/2002,5/12/2014,,Alameda County,Non-Metropolitan,,,0,,,3124 International Blvd,Oakland,94601-2902,Region IX,Non-Rural,-122.2264192,37.77790084
60499904D6,San Carlos Apache Tribe,Native American/Tribal Facility/Population,21,AZ,Designated,10/2/2002,10/2/2002,,Gila County,Non-Metropolitan,,,0,,,5 San Carlos Ave,San Carlos,85550,Region IX,Rural,-110.4525511,33.35462683
6.05E+11,Tucson Indian Center,Native American/Tribal Facility/Population,19,AZ,Designated,10/2/2002,4/5/2012,,Pima County,Metropolitan,,,0,,,97 E Congress St Ste 100,Tucson,85701-1723,Region IX,Non-Rural,-110.9696036,32.22199446
6.05E+10,Naca Family Health Center,Native American/Tribal Facility/Population,17,AZ,Designated,10/2/2002,10/2/2002,,Coconino County,Metropolitan,,,0,,,1500 E Cedar Ave,Flagstaff,86004-1641,Region IX,Non-Rural,-111.6210832,35.21804152
602999024D,Eklutna Health Clinic,Native American/Tribal Facility/Population,15,AK,Designated,10/2/2002,2/25/2013,,Anchorage Borough,Metropolitan,,,0,1,,26339 Eklutna Village Rd,Chugiak,99567-5148,Region X,Rural,-149.3617508,61.45871787
624999245B,"Lifeline Foundation, Inc.",Native American/Tribal Facility/Population,21,MD,Designated,10/5/2002,4/5/2012,,Baltimore City,Metropolitan,,,0,1,,106 Clay St,Baltimore,21201-3501,Region III,Non-Rural,-76.6171315,39.29235344
6409994098,Muskogee-Creek Nation-Koweta Facility,Native American/Tribal Facility/Population,15,OK,Designated,10/14/2002,10/15/2010,,Wagoner County,Metropolitan,,,0,1,,31870 E State Highway 51,Coweta,74429-7900,Region VI,Non-Rural,-95.61534674,35.95175238
6409994099,Cherokee Nation Vinita Health Clinic,Native American/Tribal Facility/Population,11,OK,Designated,10/14/2002,10/15/2010,,Craig County,Metropolitan,,,0,1,,525 S Wilson St,Vinita,74301-4646,Region VI,Rural,-95.15894018,36.63109963
6409994097,Cherokee Nation Bartlesville Health Center,Native American/Tribal Facility/Population,11,OK,Designated,10/14/2002,10/15/2010,,Washington County,Metropolitan,,,0,1,,501 E 5th St,Bartlesville,74003-3941,Region VI,Rural,-95.97244138,36.74797398
627999270I,Grand Portage Health Center,Native American/Tribal Facility/Population,20,MN,Designated,10/17/2002,10/17/2013,,Cook County,Metropolitan,,,0,1,,62 Upper Rd,Grand Portage,55605-3010,Region V,Rural,-89.68157848,47.96678572
635999355H,Mescalero PHS Indian Hospital,Indian Health Service Facility,16,NM,Designated,10/20/2002,2/17/2012,,Otero County,Metropolitan,,,0,1,,Abalone Loop,Mescalero,88340,Region VI,Rural,-105.7725073,33.15900668
65399953F1,Yakima Indian Health Center,Indian Health Service Facility,24,WA,Designated,10/21/2002,10/6/2015,,Yakima County,Non-Metropolitan,,,0,,,401 Buster Rd,Toppenish,98948-9792,Region X,Rural,-120.3412231,46.3796123
60499904FM,Native Americans for Community Action,Native American/Tribal Facility/Population,15,AZ,Designated,10/21/2002,7/6/2012,,Coconino County,Metropolitan,,,0,1,,2717 N Steves Blvd Ste 11,Flagstaff,86004-3959,Region IX,Non-Rural,-111.6060846,35.21195484
6099990954,Mashantuckey Pequot Tribal Nation,Native American/Tribal Facility/Population,6,CT,Designated,10/21/2002,1/24/2012,,New London County,Metropolitan,,,0,1,,2 Matts Path,Mashantucket,06338-3804,Region I,Non-Rural,-71.96971915,41.456282
64199941A7,"Coos, Siuslaw and Lower Umpqua Tribal Dental Clinic",Native American/Tribal Facility/Population,23,OR,Designated,10/22/2002,5/5/2014,,Coos County,Metropolitan,,,0,,,1245 Fulton Ave,Coos Bay,97420-2895,Region X,Rural,-124.2645508,43.3832505
6359993558,Circle of Life Behavioral Health,Native American/Tribal Facility/Population,19,NM,Designated,10/22/2002,10/22/2002,,Rio Arriba County,Non-Metropolitan,,,0,,,1102 N Paseo De Onate,Espanola,87532-2686,Region VI,Rural,-106.0871926,36.00517189
64899948K6,Brownsville Community Health Center,Federally Qualified Health Center,16,TX,Designated,10/22/2002,8/1/2012,,Cameron County,Metropolitan,,,0,,,2137 E 22nd St,Brownsville,78521-2908,Region VI,Non-Rural,-97.4786619,25.90244132
6409994094,Chickasaw Nation Health Clinic-Purcell,Native American/Tribal Facility/Population,16,OK,Designated,10/22/2002,2/14/2012,,McClain County,Non-Metropolitan,,,0,,,1438 Hardcastle Blvd,Purcell,73080-8233,Region VI,Non-Rural,-97.37093801,34.99234995
60699906P0,Colusa Indian Community Council,Native American/Tribal Facility/Population,14,CA,Designated,10/22/2002,12/9/2014,,Colusa County,Metropolitan,,,0,1,,3710 State Highway 45,Colusa,95932-4026,Region IX,Rural,-122.0314397,39.25058685
6289992862,Mississippi Band of Choctaw Indians,Indian Health Service Facility,17,MS,Designated,10/23/2002,10/22/2013,,Neshoba County,Metropolitan,,,0,1,,210 Hospital Cir,Choctaw,39350-6781,Region IV,Rural,-89.22998323,32.78274578
60699906S4,United American Indian Involvement-Bakersfield,Native American/Tribal Facility/Population,0,CA,Designated,10/23/2002,10/23/2002,,Kern County,Metropolitan,,,0,1,,1617 30th St,Bakersfield,93301-1907,Region IX,Non-Rural,-119.0204914,35.38667648
6419994161,Umpqua Community Health,Federally Qualified Health Center,26,OR,Designated,10/26/2002,10/26/2002,,Douglas County,Non-Metropolitan,,,0,,,544 W Umpqua St Ste 206,Roseburg,97471-2964,Region X,Rural,-123.3609438,43.215003
642999423E,Broadtop Area Medical Center,Federally Qualified Health Center,26,PA,Designated,10/26/2002,3/13/2014,,Huntingdon County,Non-Metropolitan,,,0,,,805 Washington St,Huntingdon,16652-1725,Region III,Rural,-78.01630417,40.48712367
6729997281,Lares Health Center,Federally Qualified Health Center,26,PR,Designated,10/26/2002,1/14/2019,,Lares Municipio,Non-Metropolitan,,,0,,,PR-111,Lares,669,Region II,Non-Rural,-66.87970765,18.29874097
6309993030,Missoula City/County Health Department,Federally Qualified Health Center,26,MT,Designated,10/26/2002,10/26/2002,,Missoula County,Non-Metropolitan,,,0,,,323 W Alder St,Missoula,59802-4123,Region VIII,Non-Rural,-113.9961688,46.87615905
6309993031,Community Health Partners,Federally Qualified Health Center,26,MT,Designated,10/26/2002,10/26/2002,,Park County,Frontier,,,0,,,126 S Main St,Livingston,59047-2624,Region VIII,Rural,-110.5592118,45.66065888
6309993034,Butte-Silverbow Primary Health Care,Federally Qualified Health Center,26,MT,Designated,10/26/2002,10/26/2002,,Silver Bow County,Non-Metropolitan,,,0,,,445 Centennial Ave,Butte,59701-2870,Region VIII,Rural,-112.541804,45.99814053
617999171Y,"Rural Health, Inc.",Federally Qualified Health Center,26,IL,Designated,10/26/2002,12/12/2016,,Union County,Non-Metropolitan,,,0,,,513 N Main St,Anna,62906-1668,Region V,Rural,-89.2450699,37.46453059
6329993238,Community Health Alliance,Federally Qualified Health Center,26,NV,Designated,10/26/2002,12/20/2017,,Washoe County,Metropolitan,,,0,,,1055 S Wells Ave,Reno,89502-2550,Region IX,Non-Rural,-119.8032276,39.515697
6469994636,Crow Creek Sioux Tribe,Native American/Tribal Facility/Population,25,SD,Designated,10/26/2002,12/15/2014,,Buffalo County,Non-Metropolitan,,,0,,,Bia Rd 4,Chamberlain,57325,Region VIII,Rural,-99.38296992,44.03645061
6309993019,Cascade City County Health Department/Community He,Federally Qualified Health Center,25,MT,Designated,10/26/2002,10/26/2002,,Cascade County,Metropolitan,,,0,,,115 4th St S,Great Falls,59401-3618,Region VIII,Non-Rural,-111.3007803,47.503935
6469994639,Yankton Sioux Tribe,Native American/Tribal Facility/Population,25,SD,Designated,10/26/2002,12/15/2014,,Charles Mix County,Non-Metropolitan,,,0,,,111 Washington Ave NW,Wagner,57380-4300,Region VIII,Rural,-98.29773276,43.08229328
6459994569,Sandhills Medical Foundation,Federally Qualified Health Center,25,SC,Designated,10/26/2002,10/26/2002,,Chesterfield County,Non-Metropolitan,,,0,,,409 E Church St,Jefferson,29718-8701,Region IV,Rural,-80.38141231,34.65627099
6209992060,Konza Prairie Community Health,Federally Qualified Health Center,25,KS,Designated,10/26/2002,12/27/2018,,Geary County,Non-Metropolitan,,,0,,,361 Grant Ave,Junction City,66441-4201,Region VII,Rural,-96.82355089,39.04347241
629999290Y,Rural Alliance for Better Health,Federally Qualified Health Center,25,MO,Designated,10/26/2002,11/6/2017,,Howell County,Non-Metropolitan,,,0,,,1115 Independence Dr,West Plains,65775-4221,Region VII,Rural,-91.86947702,36.74499118
6519995167,Johnson Health Center,Federally Qualified Health Center,25,VA,Designated,10/26/2002,12/2/2013,,Lynchburg City,Metropolitan,,,0,,,320 Federal St,Lynchburg,24504-2306,Region III,Non-Rural,-79.15158678,37.41609004
6159991526,Hana Community Health Center,Federally Qualified Health Center,25,HI,Designated,10/26/2002,4/1/2013,,Maui County,Non-Metropolitan,,,0,,,4590 Hana Hwy,Hana,96713,Region IX,Rural,-155.9940372,20.76359321
629999290S,"Southeast Missouri Health Network, Inc.",Federally Qualified Health Center,25,MO,Designated,10/26/2002,1/18/2012,,New Madrid County,Non-Metropolitan,,,0,,,PO BOX 400,New Madrid,63869-0400,Region VII,Rural,-89.53628299,36.600909
6469994641,Oglala Sioux Tribe,Native American/Tribal Facility/Population,25,SD,Designated,10/26/2002,5/1/2014,,Oglala Lakota County,Non-Metropolitan,,,0,,,Po Box H,Pine Ridge,57770,Region VIII,Rural,-102.5456166,43.0239641
636999361C,Cornerstone Family Healthcare,Federally Qualified Health Center,25,NY,Designated,10/26/2002,1/10/2019,,Orange County,Metropolitan,,,0,,,2570 US Highway 9W,Cornwall,12518-1323,Region II,Non-Rural,-74.03699478,41.44556086
6459994555,Family Health Centers,Federally Qualified Health Center,25,SC,Designated,10/26/2002,10/26/2002,,Orangeburg County,Non-Metropolitan,,,0,,,3310 Magnolia St,Orangeburg,29115-1466,Region IV,Rural,-80.83893467,33.52879044
642999422V,Covenant House Health Services,Federally Qualified Health Center,25,PA,Designated,10/26/2002,12/30/2013,,Philadelphia County,Metropolitan,,,0,,,251 E Bringhurst St,Philadelphia,19144-1719,Region III,Non-Rural,-75.16473523,40.03449895
642999422L,Quality Community Health,Federally Qualified Health Center,25,PA,Designated,10/26/2002,9/27/2013,,Philadelphia County,Metropolitan,,,0,,,2501 W Lehigh Ave,Philadelphia,19132-3207,Region III,Non-Rural,-75.17259904,39.9963053
629999290T,Central Ozark Medical,Federally Qualified Health Center,25,MO,Designated,10/26/2002,1/6/2012,,Pulaski County,Non-Metropolitan,,,0,,,304 W Washington Ave,Richland,65556-7101,Region VII,Rural,-92.40454569,37.85954062
629999291C,Family Care Health Centers,Federally Qualified Health Center,25,MO,Designated,10/26/2002,1/9/2012,,St. Louis City,Metropolitan,,,0,,,401 Holly Hills Ave,Saint Louis,63111-2410,Region VII,Non-Rural,-90.2511408,38.55804778
629999290Z,Myrtle Hilliard Davis Comprehensive Heal,Federally Qualified Health Center,25,MO,Designated,10/26/2002,1/9/2012,,St. Louis City,Metropolitan,,,0,,,5471 Dr Martin Luther King Dr,Saint Louis,63112-4265,Region VII,Non-Rural,-90.27242847,38.66834141
629999290P,Affinia Health Centers,Federally Qualified Health Center,25,MO,Designated,10/26/2002,12/29/2017,,St. Louis City,Metropolitan,,,0,,,2600 Hadley St,Saint Louis,63106-4021,Region VII,Non-Rural,-90.19452108,38.65048235
6259992528,Boston Healthcare for the Homeless,Federally Qualified Health Center,25,MA,Designated,10/26/2002,10/26/2002,,Suffolk County,Metropolitan,,,0,,,729 Massachusetts Ave,Boston,02118-2318,Region I,Non-Rural,-71.07349735,42.33340256
6419994154,Tillamook County Health Department,Federally Qualified Health Center,25,OR,Designated,10/26/2002,11/22/2016,,Tillamook County,Non-Metropolitan,,,0,,,801 Pacific Ave,Tillamook,97141-3926,Region X,Rural,-123.8431124,45.45238499
6239992369,Fish River Rural Health,Federally Qualified Health Center,24,ME,Designated,10/26/2002,12/6/2012,,Aroostook County,Non-Metropolitan,,,0,,,194 E Main St,Fort Kent,04743-1428,Region I,Rural,-68.59127108,47.2653278
617999175J,Chicago Family Health,Federally Qualified Health Center,24,IL,Designated,10/26/2002,12/14/2016,,Cook County,Metropolitan,,,0,,,9119 S Exchange Ave,Chicago,60617-4225,Region V,Non-Rural,-87.55256467,41.72949894
65599955A4,Sokaogon Chippewa Indian Community,Native American/Tribal Facility/Population,24,WI,Designated,10/26/2002,10/16/2013,,Forest County,Non-Metropolitan,,,0,,,3163 State Highway 55,Crandon,54520-8880,Region V,Rural,-88.96609155,45.48768613
65599955A3,Potawatomi Health and Wellness Center,Native American/Tribal Facility/Population,24,WI,Designated,10/26/2002,10/16/2013,,Forest County,Non-Metropolitan,,,0,,,5409 Everybodys Rd,Crandon,54520-8627,Region V,Rural,-88.84363409,45.56876004
617999172B,Community Health Improvement Center,Federally Qualified Health Center,24,IL,Designated,10/26/2002,11/18/2016,,Macon County,Metropolitan,,,0,,,1314 N Main St,Decatur,62526-4417,Region V,Non-Rural,-88.95609624,39.85511386
6339993317,Health First Family Care,Federally Qualified Health Center,24,NH,Designated,10/26/2002,12/13/2016,,Merrimack County,Metropolitan,,,0,,,841 Central St,Franklin,03235-2026,Region I,Rural,-71.62769648,43.44711664
6469994617,Pine Ridge PHS Indian Hospital,Indian Health Service Facility,24,SD,Designated,10/26/2002,9/19/2012,,Oglala Lakota County,Non-Metropolitan,,,0,,,Highway 18,Pine Ridge,57770,Region VIII,Rural,-102.7935358,43.18827522
6399993977,Community Action of Pike County,Federally Qualified Health Center,24,OH,Designated,10/26/2002,12/28/2018,,Pike County,Non-Metropolitan,,,0,,,941 Market St,Piketon,45661-9757,Region V,Rural,-82.98551988,39.06555478
6209992062,Shawnee County Health Agency,Federally Qualified Health Center,24,KS,Designated,10/26/2002,1/23/2014,,Shawnee County,Metropolitan,,,0,,,1615 SW 8th Ave,Topeka,66606-1633,Region VII,Non-Rural,-95.69630827,39.054412
629999290M,Douglas County Public Health Center,Federally Qualified Health Center,24,MO,Designated,10/26/2002,1/9/2012,,Taney County,Non-Metropolitan,,,0,,,504 W 10,Ava,65608,Region VII,Rural,-92.8246853,36.7962916
6169991640,Family Health Services,Federally Qualified Health Center,24,ID,Designated,10/26/2002,11/26/2012,,Twin Falls County,Non-Metropolitan,,,0,,,794 Eastland Dr,Twin Falls,83301-6856,Region X,Rural,-114.4405547,42.55803836
6029990239,Cross Roads Medical Center,Federally Qualified Health Center,24,AK,Designated,10/26/2002,12/7/2016,,Valdez-Cordova Census Area,Non-Metropolitan,,,0,,,187 Glenn Hwy,Glennallen,99588-0005,Region X,Rural,-145.5191964,62.1078187
65599955A9,Peter Christensen Health Center,Native American/Tribal Facility/Population,24,WI,Designated,10/26/2002,10/18/2012,,Vilas County,Non-Metropolitan,,,0,,,450 Old Abe Rd,Lac Du Flambeau,54538-9682,Region V,Rural,-89.88910998,45.97303323
65599955A7,Great Lakes Inter-Tribal Council,Native American/Tribal Facility/Population,24,WI,Designated,10/26/2002,10/17/2013,,Vilas County,Non-Metropolitan,,,0,,,2932 State Highway 47 N,Lac Du Flambeau,54538-9208,Region V,Rural,-89.91459322,45.97926109
6499994941,Enterprise Valley Medical,Federally Qualified Health Center,24,UT,Designated,10/26/2002,5/8/2013,,Washington County,Non-Metropolitan,,,0,,,223 S 200th E,Enterprise,84725,Region VIII,Rural,-113.72181,37.5739
62699926B4,Detroit Health Care for the Homeless,Federally Qualified Health Center,24,MI,Designated,10/26/2002,4/29/2015,,Wayne County,Metropolitan,,,0,,,2395 W Grand Blvd,Detroit,48208-1210,Region V,Non-Rural,-83.09688287,42.36163053
6309993029,Montana Migrant,Federally Qualified Health Center,24,MT,Designated,10/26/2002,12/27/2018,,Yellowstone County,Metropolitan,,,0,,,3318 3rd Ave N Ste 100,Billings,59101-1900,Region VIII,Non-Rural,-108.5144598,45.7804239
65599955B2,Oneida Community Health Center,Native American/Tribal Facility/Population,23,WI,Designated,10/26/2002,10/17/2013,,Brown County,Non-Metropolitan,,,0,,,525 Airport Dr,Oneida,54155-9035,Region V,Non-Rural,-88.16755329,44.49852254
629999290U,Northwest Health Services,Federally Qualified Health Center,23,MO,Designated,10/26/2002,1/9/2012,,Buchanan County,Metropolitan,,,0,,,2303 Village Dr,Saint Joseph,64506-4954,Region VII,Non-Rural,-94.79947915,39.78783412
6419994193,Coquille Community Health Center,Native American/Tribal Facility/Population,23,OR,Designated,10/26/2002,11/28/2012,,Coos County,Non-Metropolitan,,,0,,,PO BOX 3190,Coos Bay,97420-0407,Region X,Rural,-124.223723,43.362537
6229992240,Capitol City Family Health Center,Federally Qualified Health Center,23,LA,Designated,10/26/2002,4/17/2018,,East Baton Rouge Parish,Metropolitan,,,0,,,660 N Foster Dr Ste 208A,Baton Rouge,70806-1886,Region VI,Non-Rural,-91.1391706,30.45473128
6279992767,Southside Community,Federally Qualified Health Center,23,MN,Designated,10/26/2002,4/22/2013,,Hennepin County,Metropolitan,,,0,,,4243 4th Ave S,Minneapolis,55409-2113,Region V,Non-Rural,-93.27013466,44.92540758
6279992759,University of Minnesota Community Health Care,Federally Qualified Health Center,23,MN,Designated,10/26/2002,4/4/2013,,Hennepin County,Metropolitan,,,0,,,2001 Bloomington Ave,Minneapolis,55404-3074,Region V,Non-Rural,-93.25226168,44.96242513
6459994550,Little River Medical Center,Federally Qualified Health Center,23,SC,Designated,10/26/2002,10/26/2002,,Horry County,Non-Metropolitan,,,0,,,4303 Live Oak Dr,Little River,29566-9138,Region IV,Non-Rural,-78.59925027,33.88297338
6239992365,"Rural Health Centers of Maine, Inc.",Federally Qualified Health Center,23,ME,Designated,10/26/2002,4/6/2017,,Kennebec County,Metropolitan,,,0,,,9 Green St,Augusta,04330-7451,Region I,Rural,-69.77650803,44.31231921
65399953F6,Snoqualmie-North Bend Family Clinic,Native American/Tribal Facility/Population,23,WA,Designated,10/26/2002,5/13/2014,,King County,Metropolitan,,,0,1,,404 Main Ave S,North Bend,98045-8215,Region X,Non-Rural,-121.7880869,47.49258956
6469994638,Lower Brule Sioux Tribe,Native American/Tribal Facility/Population,23,SD,Designated,10/26/2002,12/15/2014,,Lyman County,Metropolitan,,,0,,,Gall St,Lower Brule,57548,Region VIII,Rural,-99.57991285,44.07486355
632999324Q,Yerington Paiute Tribe,Native American/Tribal Facility/Population,23,NV,Designated,10/26/2002,10/26/2002,,Lyon County,Metropolitan,,,0,1,,30 N West St,Yerington,89447-2219,Region IX,Rural,-119.1655686,38.98807263
6359993532,Zuni PHS Indian Hospital,Indian Health Service Facility,23,NM,Designated,10/26/2002,12/1/2016,,McKinley County,Non-Metropolitan,,,0,,,PO BOX 467,Zuni,87327-0467,Region VI,Rural,-108.8188145,35.078559
62999929HX,Eastern Shawnee Tribe,Native American/Tribal Facility/Population,23,MO,Designated,10/26/2002,10/27/2017,,Newton County,Metropolitan,,,0,1,,127 W Oneida St,Seneca,64865-9375,Region VII,Non-Rural,-94.6179354,36.83556121
6539995383,Colville PHS Indian Health Center,Indian Health Service Facility,23,WA,Designated,10/26/2002,10/6/2015,,Okanogan County,Non-Metropolitan,,,0,,,19 Lakes St,Nespelem,99155,Region X,Rural,-118.9737515,48.1668631
6549995454,Pendleton Community Center,Federally Qualified Health Center,23,WV,Designated,10/26/2002,12/6/2017,,Pendleton County,Non-Metropolitan,,,0,,,Pine St,Franklin,26807,Region III,Rural,-79.33091581,38.64342674
6469994622,Rapid City PHS Indian Health Hospital,Indian Health Service Facility,23,SD,Designated,10/26/2002,2/4/2013,,Pennington County,Non-Metropolitan,,,0,,,3200 Canyon Lake Dr,Rapid City,57702-8114,Region VIII,Non-Rural,-103.2707069,44.07385787
6229992237,Innis Community Health,Federally Qualified Health Center,23,LA,Designated,10/26/2002,11/23/2011,,Pointe Coupee Parish,Non-Metropolitan,,,0,,,6450 La Highway 1,Batchelor,70715,Region VI,Rural,-91.68044614,30.87654798
6229992235,Rapides Primary Health Care Center,Federally Qualified Health Center,23,LA,Designated,10/26/2002,10/26/2002,,Rapides Parish,Metropolitan,,,0,,,1217 Willow Glen River Rd,Alexandria,71302-5458,Region VI,Non-Rural,-92.42668876,31.28617255
6389993808,Belcourt PHS Indian Hospital,Indian Health Service Facility,23,ND,Designated,10/26/2002,2/5/2013,,Rolette County,Non-Metropolitan,,,0,,,PO BOX 160,Belcourt,58316-0160,Region VIII,Rural,-99.81207349,48.841143
630999304O,Wolf Point PHS Indian Health Center,Indian Health Service Facility,23,MT,Designated,10/26/2002,10/18/2011,,Roosevelt County,Metropolitan,,,0,1,,550 6th Ave N,Wolf Point,59201-6000,Region VIII,Rural,-105.6468344,48.09501916
635999350B,Sandia Health Clinic,Native American/Tribal Facility/Population,23,NM,Designated,10/26/2002,10/26/2002,,Sandoval County,Metropolitan,,,0,1,,203 Sandia Day School Rd,Bernalillo,87004-9015,Region VI,Non-Rural,-106.572899,35.25829906
6469994616,Rosebud PHS Indian Hospital,Indian Health Service Facility,23,SD,Designated,10/26/2002,5/8/2012,,Todd County,Non-Metropolitan,,,0,,,"BIA Route 1, Solider Creek Road",Rosebud,57570-0400,Region VIII,Rural,-100.853153,43.232109
606999067J,Peach Tree Clinic,Federally Qualified Health Center,23,CA,Designated,10/26/2002,12/6/2018,,Yuba County,Non-Metropolitan,,,0,,,6000 Lindhurst Ave,Marysville,95901-6129,Region IX,Non-Rural,-121.5686044,39.12360357
629999290H,Northeast Missouri Health Council,Federally Qualified Health Center,22,MO,Designated,10/26/2002,1/9/2012,,Adair County,Non-Metropolitan,,,0,,,800 W Jefferson St,Kirksville,63501-1443,Region VII,Rural,-92.58966595,40.19284295
62699926B5,Alcona Health Center,Federally Qualified Health Center,22,MI,Designated,10/26/2002,7/27/2016,,Alcona County,Non-Metropolitan,,,0,,,177 N Barlow Rd,Harrisville,48740,Region V,Rural,-83.40298351,44.65920148
6049990497,Tsaile Indian Health Center,Indian Health Service Facility,22,AZ,Designated,10/26/2002,5/3/2013,,Apache County,Non-Metropolitan,,,0,,,P.O. Box 467,Tsaile,86556,Region IX,Rural,-109.2183125,36.33000915
6259992541,Outer Cape Health,Federally Qualified Health Center,22,MA,Designated,10/26/2002,3/5/2013,,Barnstable County,Metropolitan,,,0,,,Harry Kemp Way,Provincetown,2657,Region I,Rural,-70.18380131,42.05860781
6309993023,Crow Agency PHS Indian Hospital,Indian Health Service Facility,22,MT,Designated,10/26/2002,10/21/2011,,Big Horn County,Non-Metropolitan,,,0,,,100 Hospital Loop,Crow Agency,59022,Region VIII,Rural,-107.4477786,45.57985436
6309993028,Harlem PHS Indian Hospital,Indian Health Service Facility,22,MT,Designated,10/26/2002,10/26/2002,,Blaine County,Non-Metropolitan,,,0,,,669 Agency Main St,Harlem,59526-9455,Region VIII,Rural,-108.7623673,48.48153923
6169991641,Boundary Regional Community Health Center,Federally Qualified Health Center,22,ID,Designated,10/26/2002,1/3/2013,,Boundary County,Non-Metropolitan,,,0,,,6635 Comanche St,Bonners Ferry,83805-7523,Region X,Rural,-116.3205219,48.70129652
6469994623,Fort Thompson PHS Indian Hospital,Indian Health Service Facility,22,SD,Designated,10/26/2002,10/26/2002,,Buffalo County,Non-Metropolitan,,,0,,,PO BOX 200,Fort Thompson,57339-0200,Region VIII,Rural,-99.47662099,44.07756
6519995161,Tri-Area/Laurel Fork Health Clinic,Federally Qualified Health Center,22,VA,Designated,10/26/2002,12/23/2013,,Carroll County,Non-Metropolitan,,,0,,,RR 1,Laurel Fork,24352,Region III,Rural,-80.57078729,36.7084901
6409994036,Ardmore Chickasaw Health Clinic,Native American/Tribal Facility/Population,22,OK,Designated,10/26/2002,8/6/2013,,Carter County,Non-Metropolitan,,,0,,,2510 Chickasaw Blvd,Ardmore,73401-1341,Region VI,Rural,-97.14043456,34.20126457
65399953B6,Makah - Sophie Trettevick Indian Health Center,Native American/Tribal Facility/Population,22,WA,Designated,10/26/2002,11/15/2016,,Clallam County,Non-Metropolitan,,,0,,,250 Fort St,Neah Bay,98357,Region X,Rural,-124.6267168,48.36785588
6279992762,Sawtooth Mountain Clinic,Federally Qualified Health Center,22,MN,Designated,10/26/2002,7/9/2013,,Cook County,Frontier,,,0,,,62 Upper Rd,Grand Portage,55605-3010,Region V,Rural,-89.68157848,47.96678572
617999172N,"Aunt Martha's Youth Service, Inc.",Federally Qualified Health Center,22,IL,Designated,10/26/2002,10/4/2016,,Cook County,Metropolitan,,,0,,,4343 211th St Ste 340,Matteson,60443-2471,Region V,Non-Rural,-87.72167402,41.50609051
617999172H,Mile Square Community Health Center,Federally Qualified Health Center,22,IL,Designated,10/26/2002,10/12/2016,,Cook County,Metropolitan,,,0,,,2045 W Washington Blvd,Chicago,60612-2428,Region V,Non-Rural,-87.67839197,41.88310148
617999172C,Erie Family Health Center,Federally Qualified Health Center,22,IL,Designated,10/26/2002,7/17/2013,,Cook County,Metropolitan,,,0,,,1701 W Superior St,Chicago,60622-5646,Region V,Non-Rural,-87.67015238,41.89508552
6399993968,Northeast Ohio Neighborhood Health Service,Federally Qualified Health Center,22,OH,Designated,10/26/2002,10/18/2013,,Cuyahoga County,Metropolitan,,,0,,,8300 Hough Ave,Cleveland,44103-4247,Region V,Non-Rural,-81.62998183,41.50933148
625999250A,Wampanoag Tribe of Gay Head,Native American/Tribal Facility/Population,22,MA,Designated,10/26/2002,10/26/2002,,Dukes County,Metropolitan,,,0,1,,20 Black Brook Rd,Aquinnah,02535-1546,Region I,Rural,-70.80011564,41.3314254
60699906Q6,Shingle Springs Tribal Health Program,Native American/Tribal Facility/Population,22,CA,Designated,10/26/2002,8/16/2012,,El Dorado County,Non-Metropolitan,,,0,,,4140 Mother Lode Dr,Shingle Springs,95682-8038,Region IX,Non-Rural,-120.9319736,38.66368128
642999422M,Community Health Net,Federally Qualified Health Center,22,PA,Designated,10/26/2002,12/15/2015,,Erie County,Metropolitan,,,0,,,1202 State St,Erie,16501-1914,Region III,Non-Rural,-80.08111111,42.12319209
606999066L,Valley Health Team,Federally Qualified Health Center,22,CA,Designated,10/26/2002,10/26/2018,,Fresno County,Metropolitan,,,0,,,21890 W Colorado Ave,San Joaquin,93660,Region IX,Rural,-120.1839131,36.6042119
6459994560,New Horizon Family Health,Federally Qualified Health Center,22,SC,Designated,10/26/2002,2/8/2016,,Greenville County,Metropolitan,,,0,,,130 Mallard St,Greenville,29601-4046,Region IV,Non-Rural,-82.41451905,34.83895864
64799947C3,Hardin County Regional Health Center,Federally Qualified Health Center,22,TN,Designated,10/26/2002,6/16/2015,,Hardin County,Non-Metropolitan,,,0,,,765 Florence Rd,Savannah,38372-3451,Region IV,Rural,-88.23928843,35.21323764
6459994566,Healthcare Partners,Federally Qualified Health Center,22,SC,Designated,10/26/2002,8/9/2013,,Horry County,Non-Metropolitan,,,0,,,1608 Main St,Conway,29526-3572,Region IV,Non-Rural,-79.05664703,33.85094754
60699906XX,United Indian Health Service - Potowat,Native American/Tribal Facility/Population,22,CA,Designated,10/26/2002,7/1/2014,,Humboldt County,Metropolitan,,,0,1,,1600 Weeot Way,Arcata,95521-4734,Region IX,Rural,-124.0923869,40.89807032
606999067D,Redwoods Rural Health Center,Federally Qualified Health Center,22,CA,Designated,10/26/2002,10/26/2002,,Humboldt County,Non-Metropolitan,,,0,,,101 W Coast Rd,Redway,95560,Region IX,Rural,-123.8134231,40.11686232
617999171A,Community Health and Emergency Services,Federally Qualified Health Center,22,IL,Designated,10/26/2002,2/27/2017,,Jackson County,Non-Metropolitan,,,0,,,1250 Cedar Ct,Carbondale,62901-5334,Region V,Non-Rural,-89.25280289,37.73948206
6419994155,Siskiyou Community Health,Federally Qualified Health Center,22,OR,Designated,10/26/2002,2/5/2013,,Josephine County,Non-Metropolitan,,,0,,,319 Caves Hwy,Cave Junction,97523-9604,Region X,Rural,-123.6430411,42.16163712
617999171X,Greater Elgin Family Care Center,Federally Qualified Health Center,22,IL,Designated,10/26/2002,11/15/2013,,Kane County,Metropolitan,,,0,,,370 Summit St,Elgin,60120-3843,Region V,Non-Rural,-88.27728299,42.04641445
636999361R,Brownsville Community,Federally Qualified Health Center,22,NY,Designated,10/26/2002,3/20/2013,,Kings County,Non-Metropolitan,,,0,,,592 Rockaway Ave,Brooklyn,11212-5539,Region II,Non-Rural,-73.90966552,40.66537773
6399993983,Lorain County Health and Dentistry,Federally Qualified Health Center,22,OH,Designated,10/26/2002,11/16/2012,,Lorain County,Non-Metropolitan,,,0,,,1800 Livingston Ave,Lorain,44052-3781,Region V,Non-Rural,-82.16792676,41.45369802
629999290V,Ozark Tricounty Health Center,Federally Qualified Health Center,22,MO,Designated,10/26/2002,1/6/2012,,McDonald County,Non-Metropolitan,,,0,,,108 E Main St,Anderson,64831-4103,Region VII,Non-Rural,-94.44387153,36.65090847
6549995453,Tug River Health Association,Federally Qualified Health Center,22,WV,Designated,10/26/2002,10/26/2002,,McDowell County,Non-Metropolitan,,,0,,,WV-103,Gary,24836,Region III,Rural,-81.55003361,37.36600668
6359993528,Presbyterian Medical Services,Federally Qualified Health Center,22,NM,Designated,10/26/2002,12/15/2013,,McKinley County,Metropolitan,,,0,,,610 N Fifth St,Gallup,87301-5306,Region VI,Rural,-108.7490203,35.5324852
6099990949,Southwest Community Health Center,Federally Qualified Health Center,22,CT,Designated,10/26/2002,6/25/2018,,Middlesex County,Metropolitan,,,0,,,635 Main St,Middletown,06457-2718,Region I,Non-Rural,-72.65232073,41.5646955
63699936B3,Rochester Primary Care Network,Federally Qualified Health Center,22,NY,Designated,10/26/2002,6/11/2013,,Monroe County,Metropolitan,,,0,,,259 Monroe Ave Bsmt B,Rochester,14607-3632,Region II,Non-Rural,-77.5990279,43.14957157
62699926C0,Thunder Bay Community Health Services,Federally Qualified Health Center,22,MI,Designated,10/26/2002,8/30/2012,,Montmorency County,Non-Metropolitan,,,0,,,610 Caring St,Hillman,49746-8818,Region V,Rural,-83.90246667,45.0687468
6239992373,Katahdin Valley Health,Federally Qualified Health Center,22,ME,Designated,10/26/2002,6/20/2017,,Penobscot County,Metropolitan,,,0,,,PO BOX 500,Patten,04765-0500,Region I,Rural,-68.48340199,46.018338
60499904B2,Tohono O'Odham Nation,Native American/Tribal Facility/Population,22,AZ,Designated,10/26/2002,3/17/2010,,Pima County,Non-Metropolitan,,,0,,,PO BOX 815,Sells,85634-0815,Region IX,Rural,-111.9675005,32.008569
6059990515,Healthy Connections,Federally Qualified Health Center,22,AR,Designated,10/26/2002,6/9/2014,,Polk County,Non-Metropolitan,,,0,,,1201 Mena St,Mena,71953-4280,Region VI,Rural,-94.23248696,34.57947785
6359993544,La Clinica Del Pueblo De Rio Arriba,Federally Qualified Health Center,22,NM,Designated,10/26/2002,12/10/2015,,Rio Arriba County,Non-Metropolitan,,,0,,,84 CR-324,Tierra Amarilla,87575,Region VI,Rural,-106.5615692,36.71213446
630999304N,Fort Peck Tribal Health Project,Native American/Tribal Facility/Population,22,MT,Designated,10/26/2002,12/9/2016,,Roosevelt County,Metropolitan,,,0,1,,PO BOX 1027,Poplar,59255-1027,Region VIII,Rural,-105.1526105,48.238296
6519995153,Clinch River Health Services,Federally Qualified Health Center,22,VA,Designated,10/26/2002,11/14/2017,,Scott County,Metropolitan,,,0,,,PO BOX 228,Dungannon,24245-0228,Region III,Non-Rural,-82.48501249,36.825315
6279992763,"Cook Area Health Services, Inc.",Federally Qualified Health Center,22,MN,Designated,10/26/2002,7/9/2013,,St. Louis County,Metropolitan,,,0,,,20 5th St SE Ste E,Cook,55723-9702,Region V,Rural,-92.67996621,47.8533357
62399923AD,Passamaquoddy Pleasant Point Health Center,Native American/Tribal Facility/Population,22,ME,Designated,10/26/2002,4/6/2017,,Washington County,Metropolitan,,,0,1,,11 Back Rd,Pleasant Point,04667-4119,Region I,Rural,-67.04202044,44.9558379
6239992374,Harrington Family Health,Federally Qualified Health Center,22,ME,Designated,10/26/2002,7/2/2014,,Washington County,Non-Metropolitan,,,0,,,50 E Main St,Harrington,04643-3043,Region I,Rural,-67.79639875,44.62225671
6239992370,Eastport Healthcare,Federally Qualified Health Center,22,ME,Designated,10/26/2002,4/6/2017,,Washington County,Non-Metropolitan,,,0,,,30 Boynton St,Eastport,04631-1306,Region I,Rural,-66.98778431,44.90515913
60499904C2,Yavapai-Prescott Tribe,Native American/Tribal Facility/Population,22,AZ,Designated,10/26/2002,10/26/2002,,Yavapai County,Non-Metropolitan,,,0,,,530 E Merritt St,Prescott,86301-2038,Region IX,Non-Rural,-112.4661825,34.55495248
6049990499,Yavapai County Health Department,Federally Qualified Health Center,22,AZ,Designated,10/26/2002,9/10/2015,,Yavapai County,Non-Metropolitan,,,0,,,930 Division St,Prescott,86301-1604,Region IX,Non-Rural,-112.4791971,34.55750659
6029990234,Council of Athabascan Tribal Government,Federally Qualified Health Center,22,AK,Designated,10/26/2002,12/28/2013,,Yukon-Koyukuk Census Area,Non-Metropolitan,,,0,,,101 Main St.,Fort Yukon,99740,Region X,Rural,-145.2564599,66.5657231
6459994563,Rural Health Services Inc.,Federally Qualified Health Center,21,SC,Designated,10/26/2002,7/25/2014,,Aiken County,Metropolitan,,,0,,,4645 Augusta Rd,Clearwater,29842-7265,Region IV,Non-Rural,-81.89724571,33.49448719
6049990486,Chinle Comprehensive Health Center,Indian Health Service Facility,21,AZ,Designated,10/26/2002,6/10/2010,,Apache County,Non-Metropolitan,,,0,,,P.O. Box Phs,Chinle,86503,Region IX,Rural,-109.5836597,36.15414088
6729997277,Ciales Primary Health,Federally Qualified Health Center,21,PR,Designated,10/26/2002,12/7/2016,,Ciales Municipio,Non-Metropolitan,,,0,,,12 Carr 149,Ciales,638,Region II,Non-Rural,-66.46594415,18.34763371
617999172F,Lawndale Christian Health Center,Federally Qualified Health Center,21,IL,Designated,10/26/2002,10/3/2016,,Cook County,Metropolitan,,,0,,,3860 W Ogden Ave,Chicago,60623-2460,Region V,Non-Rural,-87.72189307,41.85226557
65399953B3,Cowlitz Tribe,Native American/Tribal Facility/Population,21,WA,Designated,10/26/2002,12/18/2013,,Cowlitz County,Metropolitan,,,0,,,PO BOX 2547,Longview,98632-8594,Region X,Non-Rural,-122.9665805,46.152078
6169991639,Desert Sage Health Centers,Federally Qualified Health Center,21,ID,Designated,10/26/2002,1/10/2018,,Elmore County,Non-Metropolitan,,,0,,,486 W 1st Ave,Glenns Ferry,83623-2701,Region X,Rural,-115.305452,42.95376247
6729997279,Centro De Servicios Primarios De Salud Inc.,Federally Qualified Health Center,21,PR,Designated,10/26/2002,10/25/2018,,Florida Municipio,Non-Metropolitan,,,0,,,27 Calle Antonio Alcazar,Florida,00650-1913,Region II,Non-Rural,-66.57056413,18.36431445
6399993981,Columbus Neighborhood Health Center,Federally Qualified Health Center,21,OH,Designated,10/26/2002,10/21/2014,,Franklin County,Metropolitan,,,0,,,Atcheson St,Columbus,43203,Region V,Non-Rural,-82.97126499,39.9742936
6049990488,San Carlos PHS Indian Hospital,Indian Health Service Facility,21,AZ,Designated,10/26/2002,10/26/2002,,Gila County,Non-Metropolitan,,,0,,,PO BOX 208,San Carlos,85550-0208,Region IX,Rural,-110.4524,33.35127
6339993312,Ammonoosuc Community Health Services,Federally Qualified Health Center,21,NH,Designated,10/26/2002,8/9/2016,,Grafton County,Non-Metropolitan,,,0,,,25 Mount Eustis Rd,Littleton,03561-3712,Region I,Rural,-71.76975546,44.30024593
65399953B7,Chehalis Tribal Clinic,Native American/Tribal Facility/Population,21,WA,Designated,10/26/2002,12/25/2013,,Grays Harbor County,Non-Metropolitan,,,0,,,Howanut Rd,Oakville,98568,Region X,Rural,-123.1926814,46.81773413
629999291D,Advocates for a Healthy Community/Dba Jordan Valle,Federally Qualified Health Center,21,MO,Designated,10/26/2002,1/9/2012,,Greene County,Metropolitan,,,0,,,618 N Benton Ave,Springfield,65806-1102,Region VII,Non-Rural,-93.28765949,37.21439671
6289992830,"Greene Area Medical Extenders, Inc.",Federally Qualified Health Center,21,MS,Designated,10/26/2002,10/26/2002,,Greene County,Non-Metropolitan,,,0,,,1616 Williams Dr,Leakesville,39451-5622,Region IV,Rural,-88.56852748,31.14888741
6459994561,"Carolina Health Centers, Inc.",Federally Qualified Health Center,21,SC,Designated,10/26/2002,2/1/2017,,Greenwood County,Non-Metropolitan,,,0,,,313 Main St,Greenwood,29646-2757,Region IV,Rural,-82.16028823,34.1905851
6399993985,Cincinnati Health Network,Federally Qualified Health Center,21,OH,Designated,10/26/2002,2/25/2014,,Hamilton County,Metropolitan,,,0,,,2825 Burnet Ave Ste 232,Cincinnati,45219-2426,Region V,Non-Rural,-84.5014285,39.13186724
6239992367,Bucksport Regional,Federally Qualified Health Center,21,ME,Designated,10/26/2002,4/26/2017,,Hancock County,Metropolitan,,,0,,,110 Broadway,Bucksport,04416-4612,Region I,Rural,-68.78010661,44.57551028
6279992766,Neighborhood Healthsource,Federally Qualified Health Center,21,MN,Designated,10/26/2002,5/13/2014,,Hennepin County,Metropolitan,,,0,,,3300 Fremont Ave N,Minneapolis,55412-2405,Region V,Non-Rural,-93.29555516,45.01522816
626999264N,"Center for Family Health, Inc.",Federally Qualified Health Center,21,MI,Designated,10/26/2002,12/14/2015,,Jackson County,Metropolitan,,,0,,,2298 Springport Rd Ste B,Jackson,49202-1475,Region V,Non-Rural,-84.44173438,42.27661423
62699926B2,Trinity Health Corporation-Dba Mercy Health-Saint Mary's Community Health Center,Federally Qualified Health Center,21,MI,Designated,10/26/2002,5/18/2015,,Kent County,Non-Metropolitan,,,0,,,200 Jefferson Ave SE,Grand Rapids,49503-4502,Region V,Non-Rural,-85.6640541,42.95858831
6089990879,Southern Ute Health Center,Native American/Tribal Facility/Population,21,CO,Designated,10/26/2002,9/17/2015,,La Plata County,Metropolitan,,,0,1,,Capote Dr,Ignacio,81137,Region VIII,Rural,-107.6355195,37.13038198
6399993967,"Ohio Northeast Health System, Inc.",Federally Qualified Health Center,21,OH,Designated,10/26/2002,10/26/2002,,Mahoning County,Metropolitan,,,0,,,726 Wick Ave,Youngstown,44505-2827,Region V,Non-Rural,-80.64260937,41.10882641
6549995446,Monongahela Valley Association of Health Centers,Federally Qualified Health Center,21,WV,Designated,10/26/2002,12/2/2016,,Marion County,Non-Metropolitan,,,0,,,400 Main Ave,Fairmont,26554,Region III,Rural,-80.21056699,39.46197287
6229992231,Natchitoches Out Patient,Federally Qualified Health Center,21,LA,Designated,10/26/2002,6/2/2017,,Natchitoches Parish,Non-Metropolitan,,,0,,,1640 Breazeale Springs St,Natchitoches,71457-4278,Region VI,Rural,-93.10618493,31.78361226
6049990485,Winslow Indian Health Care Center,Native American/Tribal Facility/Population,21,AZ,Designated,10/26/2002,10/8/2014,,Navajo County,Non-Metropolitan,,,0,,,619 E Third St,Winslow,86047-4003,Region IX,Rural,-110.6919635,35.02203277
60699906F3,"Sierra Family Medical Clinic, Inc.",Federally Qualified Health Center Look A Like,21,CA,Designated,10/26/2002,12/6/2018,,Nevada County,Non-Metropolitan,,,0,,,15301 Tyler Foote Rd,Nevada City,95959-9318,Region IX,Rural,-121.0351359,39.36608258
63699936A1,"Heritage Health and Housing, Inc.",Federally Qualified Health Center,21,NY,Designated,10/26/2002,9/1/2015,,New York County,Metropolitan,,,0,,,1727 Amsterdam Ave,New York,10031-4611,Region II,Non-Rural,-73.94731714,40.82558112
6729997274,Centro Servicios Primarios De Salud De Patillas in,Federally Qualified Health Center,21,PR,Designated,10/26/2002,12/7/2016,,Patillas Municipio,Non-Metropolitan,,,0,,,99 Calle Guillermo Riefkol,Patillas,723,Region II,Non-Rural,-66.0138029,18.00548314
6169991650,Valley Family Health Care,Federally Qualified Health Center,21,ID,Designated,10/26/2002,12/14/2012,,Payette County,Non-Metropolitan,,,0,,,1441 NE 10th Ave,Payette,83661-5420,Region X,Rural,-116.9247825,44.05777047
6549995466,"Family Care, Inc.",Federally Qualified Health Center,21,WV,Designated,10/26/2002,10/26/2002,,Putnam County,Non-Metropolitan,,,0,1488,,301 Great Teays Blvd Ste 6,Scott Depot,25560-9553,Region III,Non-Rural,-81.93573255,38.45089686
6519995154,Daily Planet,Federally Qualified Health Center,21,VA,Designated,10/26/2002,10/26/2002,,Richmond City,Metropolitan,,,0,,,302 W Canal St,Richmond,23220-5608,Region III,Non-Rural,-77.44838901,37.54277698
6519995150,Vernon J. Harris East End Community Health Center,Federally Qualified Health Center,21,VA,Designated,10/26/2002,6/21/2018,,Richmond City,Metropolitan,,,0,,,719 N 25th St Fl 2,Richmond,23223-6539,Region III,Non-Rural,-77.41483844,37.53575107
6729997276,Costa Salud Community Health Center,Federally Qualified Health Center,21,PR,Designated,10/26/2002,12/2/2016,,Rincon Municipio,Non-Metropolitan,,,0,,,28 Calle Munoz Rivera W,Rincon,00677-2127,Region II,Non-Rural,-67.25164727,18.33856693
6549995462,Roane County Family Health Center,Federally Qualified Health Center,21,WV,Designated,10/26/2002,10/26/2002,,Roane County,Non-Metropolitan,,,0,,,146 Williams Dr,Spencer,25276-1826,Region III,Rural,-81.35055545,38.79878226
6519995165,Kuumba Community Health,Federally Qualified Health Center,21,VA,Designated,10/26/2002,2/9/2015,,Roanoke City,Metropolitan,,,0,,,3716 Melrose Ave NW,Roanoke,24017-2716,Region III,Non-Rural,-79.9977193,37.29405547
60699906CR,San Benito Health Foundation,Federally Qualified Health Center,21,CA,Designated,10/26/2002,10/26/2002,,San Benito County,Non-Metropolitan,,,0,,,351 Felice Dr,Hollister,95023-3361,Region IX,Rural,-121.4169957,36.85330744
6499994946,"Utah Navajo Health System, Inc.",Federally Qualified Health Center,21,UT,Designated,10/26/2002,5/13/2014,,San Juan County,Frontier,,,0,,,PO BOX 130,Montezuma Creek,84534-0130,Region VIII,Rural,-109.307663,37.25979
65399953A6,Sauk-Suiattle Health Clinic,Native American/Tribal Facility/Population,21,WA,Designated,10/26/2002,3/18/2014,,Skagit County,Metropolitan,,,0,,,5318 Chief Brown Ln # 1,Darrington,98241-9420,Region X,Rural,-121.5537239,48.32125316
6229992232,Southwest Louisianna Primary,Federally Qualified Health Center,21,LA,Designated,10/26/2002,9/5/2018,,St. Landry Parish,Metropolitan,,,0,,,8762 Highway 182,Opelousas,70570-5603,Region VI,Rural,-92.07327161,30.56591377
629999290N,People's Health Centers,Federally Qualified Health Center,21,MO,Designated,10/26/2002,1/6/2012,,St. Louis City,Metropolitan,,,0,,,5701 Delmar Blvd,Saint Louis,63112-2617,Region VII,Non-Rural,-90.28510849,38.65411241
6229992230,Teche Action Clinic,Federally Qualified Health Center,21,LA,Designated,10/26/2002,10/26/2002,,St. Mary Parish,Non-Metropolitan,,,0,,,1115 Weber St,Franklin,70538-4124,Region VI,Rural,-91.50530954,29.79841616
6259992539,East Boston,Federally Qualified Health Center,21,MA,Designated,10/26/2002,11/2/2017,,Suffolk County,Metropolitan,,,0,,,10 Gove St,East Boston,02128-1920,Region I,Non-Rural,-71.03847694,42.37217849
6399993980,"Axesspointe Community Health Center, Inc.",Federally Qualified Health Center,21,OH,Designated,10/26/2002,4/13/2017,,Summit County,Metropolitan,,,0,,,1400 S Arlington St Unit 28,Akron,44306-3772,Region V,Non-Rural,-81.49142886,41.03371807
6189991822,"Riggs Community Health Center, Inc.",Federally Qualified Health Center,21,IN,Designated,10/26/2002,11/17/2016,,Tippecanoe County,Metropolitan,,,0,,,1716 Hartford St,Lafayette,47904-2173,Region V,Non-Rural,-86.87762116,40.42804746
6499994945,"Mountainlands Community Health Center, Inc.",Federally Qualified Health Center,21,UT,Designated,10/26/2002,1/31/2013,,Utah County,Metropolitan,,,0,,,589 S State St,Provo,84606-5056,Region VIII,Non-Rural,-111.6438562,40.22626621
617999170Y,Shawnee Health Services Corporation,Federally Qualified Health Center,21,IL,Designated,10/26/2002,11/30/2017,,Williamson County,Non-Metropolitan,,,0,,,6325 Brandhorst Rd,Carterville,62918-3322,Region V,Non-Rural,-89.04137537,37.74619657
6379993790,Carolina Family Health Center,Federally Qualified Health Center,21,NC,Designated,10/26/2002,12/17/2016,,Wilson County,Non-Metropolitan,,,0,,,303 Green St E,Wilson,27893-4105,Region IV,Rural,-77.90779121,35.72473375
6389993810,Fort Totten PHS Indian Health Center,Indian Health Service Facility,20,ND,Designated,10/26/2002,10/26/2002,,Benson County,Non-Metropolitan,,,0,,,PO BOX 200,Fort Totten,58335-0200,Region VIII,Rural,-98.99550349,47.987907
635999355F,To'Hajiiilee Canoncito Health Center,Indian Health Service Facility,20,NM,Designated,10/26/2002,12/13/2011,,Bernalillo County,Metropolitan,,,0,1,,I-40 W,Laguna,87026,Region VI,Non-Rural,-106.9418866,35.03370919
62099920BD,White Cloud Indian Health Station,Native American/Tribal Facility/Population,20,KS,Designated,10/26/2002,8/7/2013,,Brown County,Metropolitan,,,0,1,,3313 Thrasher Rd Apt B,White Cloud,66094-4028,Region VII,Rural,-95.36815563,39.9886943
6229992229,David Raines Community Health Center,Federally Qualified Health Center,20,LA,Designated,10/26/2002,10/26/2002,,Caddo Parish,Metropolitan,,,0,,,1625 David Raines Rd,Shreveport,71107-5899,Region VI,Non-Rural,-93.82887543,32.53617486
629999293P,Cross Trails Medical Center,Federally Qualified Health Center,20,MO,Designated,10/26/2002,1/6/2012,,Cape Girardeau County,Non-Metropolitan,,,0,,,937 Broadway St Ste 305,Cape Girardeau,63701-5474,Region VII,Non-Rural,-89.5307521,37.30717561
6499994943,Carbon Medical Services,Federally Qualified Health Center,20,UT,Designated,10/26/2002,4/30/2013,,Carbon County,Non-Metropolitan,,,0,,,305 E Center St,East Carbon,84520,Region VIII,Rural,-110.416626,39.54357328
617999171E,Primecare Community Health,Federally Qualified Health Center,20,IL,Designated,10/26/2002,11/25/2014,,Cook County,Metropolitan,,,0,,,1431 N Western Ave Ste 401,Chicago,60622-1797,Region V,Non-Rural,-87.68710359,41.90828394
6399993975,Care Alliance,Federally Qualified Health Center,20,OH,Designated,10/26/2002,6/2/2014,,Cuyahoga County,Metropolitan,,,0,,,2529 Detroit Ave,Cleveland,44113-2701,Region V,Non-Rural,-81.70813253,41.49104885
642999423B,Chespenn Health Service,Federally Qualified Health Center,20,PA,Designated,10/26/2002,3/22/2013,,Delaware County,Metropolitan,,,0,,,2600 W 9th St Ste B,Chester,19013-2040,Region III,Non-Rural,-75.39299007,39.83748933
6469994618,Eagle Butte PHS Indian Hospital,Indian Health Service Facility,20,SD,Designated,10/26/2002,10/26/2002,,Dewey County,Non-Metropolitan,,,0,,,PO BOX 1012,Eagle Butte,57625-1012,Region VIII,Rural,-101.23541,44.997702
6029990233,Bristol Bay Area Health Corporation,Federally Qualified Health Center,20,AK,Designated,10/26/2002,4/24/2014,,Dillingham Census Area,Non-Metropolitan,,,0,,,101 Main St,Twin Hills,99576-9801,Region X,Rural,-158.4630324,59.03952618
6319993123,Charles Drew Medical Clinic,Federally Qualified Health Center,20,NE,Designated,10/26/2002,9/24/2014,,Douglas County,Non-Metropolitan,,,0,,,2915 Grant St,Omaha,68111-3863,Region VII,Non-Rural,-95.9558138,41.27991454
6209992001,Haskell PHS Indian Health Center,Indian Health Service Facility,20,KS,Designated,10/26/2002,12/4/2013,,Douglas County,Metropolitan,,,0,1,,2415 Massachusetts St,Lawrence,66046-4827,Region VII,Non-Rural,-95.23598738,38.94002532
